site_name,Zm,g1,Albedo,Elev,MAP,MAT,Source,Dataset,N_gN_100gleaf,AGB_t_DM_ha,Ref,lat,long,LC,Koppen,hc,LAImax,DATA_START,DATA_END,hc_RS,theta_f_mean,PAW_mean,theta_r_mean,theta_s_mean,theta_wp_mean
AR-SLu,11,5.5,0.11,500,400,,FLUXNET2015,,,,,-33.46480179,-66.45980072,MF,,4.5,,,,0.547925744,0.250690013,0.126560003,0.11998,0.416020006,0.124130011
AT-Neu,3,2.9,0.16,970,852,6.5,FLUXNET2015,F15,2.906,32,2,47.1166687,11.31750011,GRA,Dfc,1,6.5,2002,2012,1.644327317,0.375519991,0.231670007,0.135240003,0.531470001,0.143849984
AU-ASM,11.60000038,3.5,0.1,606,,,FLUXNET2015,F15,1.776,0,4,-22.28300095,133.2489929,ENF,BSh,6.5,0.47,2010,2014,2.487832881,0.212799996,0.095310003,0.11569,0.381889999,0.117489994
AU-Cow,35,2.6,,86,4250,,FLUXNET2015,,,,,-16.2381897,145.4271545,ENF,,22,,,,16.36254163,0.340530008,0.165189996,0.167290002,0.493999988,0.175340012
AU-Cpr,20,4.8,0.19,76,,,FLUXNET2015,F15,1.243,0,"5,6",-34.00205994,140.5891266,SAV,BSk,4,0.782,2010,2014,0.00677627,0.208550006,0.095380001,0.112170003,0.406089991,0.113170005
AU-Ctr,45,4.1,,66,,,FLUXNET2015,,,,,-16.10327911,145.4468536,EBF,,25,,,,17.15369335,0.370220006,0.180649996,0.179769993,0.51485002,0.18957001
AU-Cum,30,4.1,0.11,200,,,FLUXNET2015,F15,1.1,71,7,-33.61329651,150.7224731,EBF,Cfa,23,2.0332,2012,2014,11.69564904,0.252279997,0.130469993,0.117969997,0.431039989,0.121810004
AU-DaP,15,4.2,0.16,116,983.78,27.25,FLUXNET2015,F15,,0,7,-14.06330013,131.3181,GRA,Aw,0.300000012,,2007,2013,0,0.261049986,0.122720003,0.134470001,0.428079993,0.138329983
AU-DaS,21,4.2,0.19,108,975.82,27.22,FLUXNET2015,F15,,47,8,-14.15928268,131.3880005,SAV,Aw,16.39999962,1.8768,2008,2014,4.56809087,0.20465,0.10046,0.102920003,0.406089991,0.104189999
AU-Dry,15,4.1,0.19,191,,,FLUXNET2015,F15,,18,9,-15.25879955,132.3706055,SAV,Aw,12.30000019,1.66,2008,2014,4.071870184,0.211129993,0.101779997,0.107969999,0.40801999,0.109349996
AU-Emr,5.599999905,4.2,0.16,177,,,FLUXNET2015,F15,,0,10,-23.8586998,148.4745941,GRA,BSh,2,,2011,2013,0.053450304,0.331090003,0.12308,0.199609995,0.441119999,0.208010003
AU-GWW,35,4.8,0.19,504,,,FLUXNET2015,,,,,-30.19129944,120.6540985,SAV,,18,,2013,2014,1.141310853,0.227860004,0.105080001,0.12043,0.399199992,0.122780003
AU-Gin,15,4.1,0.19,51,,,FLUXNET2015,F15,,82,,-31.375,115.6500015,WSA,Csa,7,1.4076,2011,2014,0.405125314,0.169149995,0.075208999,0.093684003,0.39508,0.093940996
AU-How,23,4.1,0.19,41,1449.35,27.01,FLUXNET2015,F15,,,12,-12.49520016,131.1499939,WSA,Aw,16,2.4,2001,2014,2.820075158,0.262329996,0.127810001,0.130649999,0.436589986,0.134519994
AU-Lit,31,4.1,,200,,,FLUXNET2015,,,,,-13.17903996,130.7944946,WSA,,20,,,,4.150364074,0.268649995,0.120379999,0.143989995,0.424730003,0.148269996
AU-Otw,10,5.5,,54,,,FLUXNET2015,,,,,-38.532341,142.816803,EBF,,0.100000001,,,,0.191215399,0.292210013,0.158590004,0.128480002,0.501670003,0.133620009
AU-Rig,2.5,4.2,0.16,133,,,FLUXNET2015,F15,,0,7,-36.64989853,145.5758972,GRA,Cfb,0.400000006,,2011,2014,0.342773277,0.244460002,0.11541,0.125259995,0.403299987,0.129050002
AU-Rob,46,,,710,,,FLUXNET2015,,,,,-17.11750031,145.6300964,EBF,,44,,1989,2014,18.63961669,0.345290005,0.162599996,0.174270004,0.493609995,0.182690009
AU-Sam,2,,,170,,,FLUXNET2015,,,,,-27.38809967,152.8778076,,,0.5,,,,8.174165034,0.280180007,0.13955,0.135849997,0.453440011,0.140630007
AU-Stp,4.800000191,4.2,0.16,252,,,FLUXNET2015,F15,,0,7,-17.15069962,133.3502045,GRA,BSh,0.5,,2008,2014,0,0.284399986,0.118479997,0.160559997,0.422479987,0.165919989
AU-TTE,9.81000042,3.9,0.25,553,,,FLUXNET2015,F15,,0,,-22.28700066,133.6399994,OSH,BSh,4.849999905,0.4692,2012,2014,0.039048914,0.184489995,0.078050002,0.105930001,0.376139998,0.106439993
AU-Tum,70,4.1,0.11,1200,1159.01,10.72,FLUXNET2015,,,,,-35.65660095,148.1517029,EBF,,40,,2001,2014,20.31296671,0.380360007,0.201849997,0.166899994,0.554830015,0.17851001
AU-Whr,32,5.5,,152,,,FLUXNET2015,F15,,138,15,-36.6731987,145.0294037,EBF,Cfb,28,1.4076,2011,2014,11.34339733,0.220420003,0.114540003,0.103459999,0.412310004,0.10588
AU-Wom,,5.5,,705,,,FLUXNET2015,F15,,223,,-37.4222,144.0944,EBF,Cfb,22,6.4124,2010,2014,17.27429845,0.357650012,0.196830004,0.15027,0.552209973,0.160820007
AU-Wrr,92,,,100,,,FLUXNET2015,,,,,-43.09502029,146.6544952,,,90,,,,16.30652231,0.377130002,0.209179997,0.156599998,0.55576998,0.167950004
AU-Ync,8,4.2,0.16,125,,,FLUXNET2015,F15,,0,16,-34.98929977,146.2906952,GRA,BSk,0.5,,2012,2014,0,0.311989993,0.106959999,0.19754,0.416399986,0.205029994
BE-Bra,39,5.5,,16,750,9.8,ICOS,F15,2.314,128,17,51.30916595,4.520559788,MF,Cfb,21.7,2.1,1996,2023,14.10189729,0.103430003,0.035055999,0.068370998,0.432099998,0.068374004
BE-Dor,,5.4,,,827.9,10.3,ICOS,,,,,50.311928,4.968011,GRA,Cfb,,,2011,2023,0.593349206,0.366189986,0.224820003,0.135440007,0.476579994,0.141369984
BE-Lcr,,5.5,,,861.3,10.6,ICOS,,,,,51.11218,3.85043,DBF,Cfb,3.71,,2019,2020,0.427324315,0.15151,0.076892003,0.074110001,0.372619987,0.074617997
BE-Lon,2.700000048,5.6,0.19,167,800,10,ICOS,,,,,50.55158997,4.74612999,CRO,Cfb,1,6,2004,2023,0.082849239,0.323749989,0.21029,0.109140001,0.432200015,0.113459989
BE-Maa,3,4.6,,,839.1,10.3,ICOS,,,,,50.980183,5.631478,CSH,Cfb,1,,2016,2023,0.489231762,0.194849998,0.115768999,0.076348998,0.394630015,0.079080999
BE-Vie,40,4.6,0.11,493,1062,7.8,ICOS,F15,1.05,167,18,50.30506897,5.998050213,MF,Cfb,34.6,5.1,1996,2023,14.50359189,0.371039987,0.23567,0.127739996,0.519850016,0.135369986
BR-Sa3,64,4.1,0.11,100,2043.77,26.12,FLUXNET2015,F15,,268,21,-3.018029213,-54.97143555,EBF,Am,40,5.21,2000,2004,19.7689802,0.353949994,0.142000005,0.202240005,0.481840014,0.211949989
BW-Ma1,12.60000038,3.9,,929,,,FLUXNET2015,LT,,6,22,-19.91650009,23.56032944,SAV,BSh,8,1.1,,,0.033415263,0.107210003,0.027732,0.079476997,0.393180013,0.079478003
CA-Gro,43,5.5,,340,831,1.3,FLUXNET2015,F15,1.466,98,24,48.2167,-82.1556,MF,Dbf,31,4.3,2003,2014,15.88334135,0.503099978,0.276760012,0.186900005,0.68572998,0.226339966
CA-Man,30,,,259,520,-3.2,FLUXNET2015,,,,,55.8796,-98.4808,ENF,,,,1994,2008,3.498822477,0.428160012,0.198359996,0.214520007,0.563650012,0.229800016
CA-NS1,24,5.8,0.1,260,500.29,-2.89,FLUXNET2015,F15,0.675,47,27,55.87919998,-98.48390198,ENF,Dfc,20,5.68,2001,2005,3.503260668,0.427289993,0.194150001,0.21751,0.562820017,0.233139992
CA-NS2,20,5.8,0.1,260,499.82,-2.88,FLUXNET2015,F15,0.657,38,6,55.90579987,-98.52469635,ENF,Dfc,20,7.8,,,4.62709343,0.445639998,0.205300003,0.222210005,0.585979998,0.240339994
CA-NS4,10,5.8,0.1,260,502.22,-2.87,FLUXNET2015,,,,,55.91439819,-98.38059998,ENF,,7,,,,1.994662071,0.51831001,0.218529999,0.265430003,0.65903002,0.299780011
CA-NS5,9,5.8,0.1,260,500.34,-2.86,FLUXNET2015,F15,0.915,51,6,55.86309814,-98.48500061,ENF,Dfc,5,5.49,,,2.462124562,0.456609994,0.215920001,0.220840007,0.603550017,0.240689993
CA-NS6,6,3.9,0.25,244,495.37,-3.08,FLUXNET2015,F15,1.95,51,6,55.91669846,-98.96440125,OSH,Dfc,4,2.97,,,0.189375887,0.403849989,0.193149999,0.198620006,0.537519991,0.21069999
CA-NS7,6,3.9,0.25,297,483.27,-3.52,FLUXNET2015,F15,1.36,37,6,56.63579941,-99.94830322,OSH,Dfc,0.25,1.36,,,0.112513011,0.413390011,0.200069994,0.200000003,0.554359972,0.213320017
CA-TP2,15,5.8,,212,1036,8,FLUXNET2015,F15,1.34,112,36,42.7744,-80.4588,ENF,Dfb,11.5,12.8,2002,2007,11.37877752,0.275139987,0.166299999,0.103710003,0.487890005,0.108839989
CA-TP4,34.3,5.8,,212,1036,8,FLUXNET2015,F15,1.385,197,37,42.7102,-80.3574,ENF,Dfb,23.4,8,2002,2014,16.08028812,0.28362,0.173329994,0.104450002,0.506690025,0.110290006
CA-Qcu,7.5,5.8,,392,,,FLUXNET2015,LT,,27,31,49.2670784,-74.03652954,ENF,Dfc,5.5,0.77,,,0.169614812,0.431400001,0.258659989,0.142810002,0.641839981,0.172740012
CA-Qfo,24,5.8,0.1,382,962.32,-0.36,FLUXNET2015,F15,0.754,44,32,49.69250107,-74.34210205,ENF,Dfc,14,3.7,2003,2010,1.493736483,0.481409997,0.27956,0.164230004,0.673609972,0.201849997
CA-SF1,12.1,2.5,0.1,536,470,0.4,FLUXNET2015,F15,0.95,85,33,54.48500061,-105.8175964,ENF,Dfc,6,3.4,2003,2006,2.211926456,0.508979976,0.272799999,0.188170001,0.69976002,0.236179978
CA-SF2,9.144,2.5,0.1,520,470,0.4,FLUXNET2015,F15,1.07,57,33,54.25389862,-105.8775024,ENF,Dfc,4,3,2001,2005,3.55293442,0.473509997,0.269749999,0.173299998,0.658779979,0.203759998
CA-SF3,18.288,3.9,0.25,540,470,0.4,FLUXNET2015,F15,1.35,57,33,54.09159851,-106.0053024,OSH,Dfc,1,1.1,2001,2006,4.225044176,0.450019985,0.258399993,0.165209994,0.641520023,0.191619992
CH-Aws,2,4.2,,,918,2.3,ICOS,,,,,46.583194,9.790417,GRA,Dfc,0.3,2.5,2006,2020,3.275749519,0.35036999,0.234410003,0.108170003,0.526780009,0.115959987
CH-Cha,2,4.8,0.16,393,1136,9.5,ICOS,F15,2.626,15,39,47.21022034,8.410440445,GRA,Cfb,0.5,4.85,2005,2020,3.309203952,0.323150009,0.193039998,0.123989999,0.474000007,0.130110011
CH-Dav,35,3.3,0.1,1639,1062,2.8,ICOS,F15,1.13,102,"40,41",46.81533432,9.855919838,ENF,Dfc,25,5.5,1997,2023,7.084944292,0.382149994,0.242709994,0.129109994,0.555670023,0.13944
CH-Fru,2.549999952,4.2,0.16,982,1651,7.2,ICOS,F15,2.135,42,42,47.11583328,8.537779808,GRA,Cfb,0.4,4.85,2005,2020,2.898283091,0.414979994,0.24278,0.161709994,0.553680003,0.172199994
CH-Lae,40,4.6,,689,1100,8.3,ICOS,,,,,47.478333,8.364389,MF,Cfb,34.6,5.1,2004,2020,19.05477506,0.380259991,0.222939998,0.14937,0.512769997,0.157319993
CH-Oe1,2,4.8,0.16,450,1100,9,FLUXNET2015,F15,,0,43,47.28583145,7.731939793,GRA,Cfb,0.5,4.85,2002,2008,0.629553552,0.333460003,0.191980004,0.13538,0.462370008,0.141479999
CH-Oe2,2.700000048,5.6,,452,1155,9.8,ICOS,,,,,47.286417,7.73375,CRO,Cfb,1,6,2004,2020,0.616240719,0.337460011,0.192680001,0.138510004,0.465750009,0.14478001
CN-Cha,40,5.5,0.11,754,663.59,2.16,FLUXNET2015,F15,1.91,117,44,42.40250015,128.0957947,MF,Dwb,28,6,2003,2005,12.28780627,0.389979988,0.239030004,0.143199995,0.518369973,0.150949985
CN-Cng,2,3.8,0.16,138,,,FLUXNET2015,F15,,0,,44.59339905,123.509201,GRA,Dwa,0.75,,2007,2010,0.004123798,0.255989999,0.13301,0.11806,0.40022999,0.122979999
CN-Dan,2.099999905,3.8,0.16,4751,246.88,-1.54,FLUXNET2015,,,,,30.49780083,91.06639862,GRA,,1,,2004,2005,0,0.222340003,0.121969998,0.096390001,0.38714999,0.100370005
CN-Din,32,4.6,0.11,261,1618.1,19.64,FLUXNET2015,F15,1.72,91,,23.17329979,112.5361023,EBF,Cfa,30,4,2003,2005,12.95890692,0.300940007,0.165309995,0.129800007,0.457060009,0.135630012
CN-Du2,3,3.8,0.16,1331,318.96,2.01,FLUXNET2015,F15,,0,45,42.04669952,116.2835999,GRA,Dwb,0.5,,2006,2008,2.03E-05,0.263020009,0.142389998,0.115620002,0.395469993,0.120630011
CN-HaM,2.200000048,3.8,0.16,3975,,,FLUXNET2015,F15,2.938,0,46,37.36999893,101.1800003,GRA,ET,0.300000012,2.8,2002,2004,0.031349209,0.32438001,0.203789994,0.114500001,0.483850002,0.120590016
CN-Qia,39.59999847,3.5,0.1,64,1466.75,18.95,FLUXNET2015,F15,1.23,88,,26.74139977,115.0580978,ENF,Cfa,13,3.5,2003,2005,9.867626163,0.322100013,0.173989996,0.141939998,0.448489994,0.148110017
CZ-BK1,35,5.1,,875,1316,6.7,ICOS,,,,,49.50207615,18.53688247,ENF,Dbf,25,7.6,2004,2023,13.58402272,0.362370014,0.236379996,0.117990002,0.528559983,0.125990018
CZ-KrP,5,5.6,,,620,7.1,ICOS,,,,,49.573257,15.078773,CRO,,3,,2014,2020,1.343645938,0.303279996,0.191589996,0.106449999,0.459080011,0.11169
CZ-Lnz,40,4.6,,,550,9.3,ICOS,,,,,48.681611,16.946416,MF,,34.6,2.9,2015,2023,14.49255538,0.27403,0.155670002,0.113399997,0.440730006,0.118359998
CZ-RAJ,35,3.9,,,681,7.1,ICOS,,,,,49.4437236,16.6965125,ENF,,25,7.6,2012,2020,12.63727723,0.343760014,0.221169993,0.11569,0.506669998,0.12259002
CZ-Stn,43.5,5.5,,,685,8.7,ICOS,,,,,49.035975,17.9699,DBF,,35,6.6,2010,2020,12.77057333,0.382209986,0.238100007,0.136590004,0.51631999,0.144109979
CZ-wet,2.700000048,6.5,,426,604,7.7,ICOS,F15,,22,,49.02465057,14.77035046,WET,Cfb,1,0.9,2006,2023,1.082152983,0.293139994,0.173879996,0.113959998,0.448740005,0.119259998
DE-Akm,8,6.5,,-1,558,8.7,ICOS,F15,,49,,53.86617,13.68342,WET,Cfb,4,0.9,2009,2020,1.185828413,0.283740014,0.157159999,0.121370003,0.464359999,0.126580015
DE-Bay,31,5.1,,781,,,FLUXNET2015,LT,,163,47,50.14194107,11.86693954,ENF,Cfb,25,5.6,,,5.117021555,0.361180007,0.234540001,0.117830001,0.538259983,0.126640007
DE-Gds,31,4.1,,,883,8.3,ICOS,,,,,56.0737,9.3341,EBF,Cfb,25,,,,14.73237959,0.264120013,0.1602,0.099113002,0.529240012,0.103920013
DE-Geb,6,5.6,0.19,161.5,470,8.5,ICOS,,,,,51.10010147,10.91429996,CRO,,1,6,2001,2023,0,0.316680014,0.178870007,0.132200003,0.43900001,0.137810007
DE-Gri,3,2.9,0.16,385,877,8.4,ICOS,F15,,142,48,50.94947052,13.51253033,GRA,Cfb,0.82,6.5,2004,2023,1.82039516,0.36868,0.237090006,0.123659998,0.526380002,0.131589994
DE-Hai,43.5,5.5,0.11,430,720,8.3,ICOS,F15,2.317,185,49,51.07916641,10.45300007,DBF,Cfb,35,6.6,2000,2023,22.30920292,0.398220003,0.242540002,0.147420004,0.526750028,0.155680001
DE-HoH,43.5,5.5,,,563,9.1,ICOS,,,,,52.085306,11.219222,DBF,,35,4.2,2015,2023,21.04995961,0.325260013,0.215010002,0.104939997,0.473140001,0.110250011
DE-Hte,8,6.5,,0.2,645,9.2,ICOS,,,,,54.210278,12.176111,WET,,4,0.9,,,0.272963564,0.30588001,0.181150004,0.118150003,0.50575,0.124730006
DE-Hzd,43.5,5.5,,,901,7.8,ICOS,,,,,50.96381,13.48978,DBF,,35,6.6,2010,2023,9.680190679,0.360799998,0.237350002,0.116039999,0.520720005,0.123449996
DE-Kli,3.5,5.6,0.12,478,842,7.6,ICOS,,,,,50.89305878,13.52237988,CRO,,1.5,6,2004,2023,0.247982106,0.327439994,0.205990002,0.116099998,0.461459994,0.121449992
DE-Lkb,,3.9,,1308,1599,4,FLUXNET2015,F15,,70,50,49.0996,13.3047,ENF,Cfb,2,,2009,2013,0.150631219,0.364829987,0.238000005,0.117990002,0.539520025,0.126829982
DE-Lnf,,5.5,,451,894.6,6.96,FLUXNET2015,F15,,142,51,51.3282,10.3678,DBF,Cfb,35,4.2,2002,2012,15.98892481,0.401540011,0.247339994,0.146390006,0.521719992,0.154200017
DE-Meh,3,4.6,,291,,,FLUXNET2015,LT,1.41,0,52,51.27531052,10.65546989,MF,Cfb,1,2.9,,,0.805205488,0.354990005,0.208670005,0.14034,0.465330005,0.14632
DE-Obe,30,5.1,0.1,734,996,5.5,ICOS,F15,,163,,50.78665924,13.72128963,ENF,Cfb,20.5,7.6,2008,2020,10.1599243,0.358900011,0.234119996,0.116379999,0.533339977,0.124780014
DE-RuR,2,5.4,,514.7,1033,7.7,ICOS,,,,,50.6219142,6.3041256,GRA,,0.3,3,2011,2023,0.330474215,0.344639987,0.217340007,0.121550001,0.475829989,0.127299979
DE-RuS,2,5.6,,102.755,700,10,ICOS,,,,,50.86590702,6.447144704,CRO,,1,6,2011,2023,0.162416426,0.316379994,0.191699997,0.119989999,0.422019988,0.124679998
DE-RuW,23.5,4.7,,,,,ICOS,,,,,50.50490703,6.33101886,ENF,,19,2.1,2012,2023,15.16197725,0.419580013,0.251379997,0.157450005,0.560530007,0.168200016
DE-Seh,2,5.6,0.19,103,693,9.9,FLUXNET2015,,,,,50.87062454,6.449649811,CRO,,0.800000012,,2007,2010,0.045986584,0.316379994,0.191699997,0.119989999,0.422019988,0.124679998
DE-SfN,4.300000191,6.5,,590,1127,8.6,FLUXNET2015,F15,,65,,47.80638885,11.32750034,WET,Cfb,2,,2012,2014,2.024293288,0.305510014,0.190909997,0.108329996,0.494760007,0.114600018
DE-Tha,42,5.1,0.1,380,843,8.2,ICOS,F15,1.4,188,53,50.9636116,13.56694031,ENF,Cfb,29.4,7.6,1996,2023,14.31425103,0.342570007,0.219469994,0.116109997,0.507740021,0.123100013
DE-Wet,29.39999962,5.1,,703,,,FLUXNET2015,LT,1.4,214.5,51,50.45349884,11.45753002,ENF,Cfb,22,7.7,,,18.05161361,0.404729992,0.257079989,0.136950001,0.563610017,0.147650003
DE-Zrk,,,,0,584,8.7,FLUXNET2015,,,,,53.8759,12.889,WET,,,,2013,2014,0.031185642,0.326990008,0.180570006,0.139719993,0.476509988,0.146420002
DK-Eng,,,,10,613,8,FLUXNET2015,,,,,55.6905,12.1918,GRA,,,,2005,2008,0.253256915,0.255800009,0.144089997,0.10751,0.443239987,0.111710012
DK-Fou,3.5,,,51,,8,FLUXNET2015,,,,,56.48419952,9.587220192,CRO,,1,,,,0.832971258,0.213070005,0.125455007,0.085371003,0.442030013,0.087614998
DK-Lva,2.5,,,-2493,,,FLUXNET2015,,,,,55.68330002,12.08329964,,,0.5,,,,0.375610267,0.27094999,0.157389998,0.108750001,0.457179993,0.113559991
DK-Ris,2,,,24,,,FLUXNET2015,,,,,55.53028107,12.09722042,,,1,,,,0.189562757,0.282739997,0.162009999,0.115510002,0.455159992,0.120729998
DK-Sor,57,5.7,,40,660,8.2,ICOS,F15,2.27,123,55,55.48587036,11.64463997,DBF,Cfb,29.2,5,1996,2023,11.74002736,0.263480008,0.157989994,0.100960001,0.47209999,0.105490014
DK-ZaH,3,5.4,,38,,,FLUXNET2015,F15,,,56,74.47319794,-20.5503006,GRA,ET,0.5,,,,,0.325700015,0.202030003,0.115680002,0.525460005,0.123670012
ES-Abr,8,3.8,,,,,ICOS,,,,,38.701839,-6.785881,SAV,,4,2,2015,2020,0.63838064,0.277610004,0.146679997,0.125599995,0.410380006,0.130930007
ES-Agu,,4.4,,,,,ICOS,,,,,36.940046,-2.033208,OSH,,,,2006,2020,0.000465478,0.274549991,0.135230005,0.133790001,0.403750002,0.139319986
ES-Amo,,,,58,0,,FLUXNET2015,,,,,36.8336,-2.2523,OSH,,,,2007,2012,0,0.254599988,0.127890006,0.121710002,0.394719988,0.126709983
ES-Cnd,,3.7,,,474,15.8,ICOS,,,,,37.914998,-3.227659,WSA,,,,2014,2020,1.016407091,0.313149989,0.154290006,0.152620003,0.423260003,0.158859983
ES-ES1,13,4.5,,1,,,FLUXNET2015,LT,,,57,39.34597015,-0.318809986,ENF,Csa,7.5,3.63,,,4.711354853,0.315530002,0.16516,0.144020006,0.452829987,0.150370002
ES-ES2,1.600000024,,,7,,,FLUXNET2015,,,,,39.27555847,-0.31527999,,,0.5,,,,0.001795301,0.381650001,0.184780002,0.187480003,0.499190003,0.196869999
ES-LJu,,4.4,,1600,400,16,ICOS,F15,,,59,36.926594,-2.752115,OSH,Csa,0.5,,2004,2020,0.059884988,0.281630009,0.150079995,0.126179993,0.418579996,0.131550014
ES-LM1,8,3.8,,,700,16,ICOS,,,,,39.94269,-5.778683,SAV,,4,2,2014,2020,1.050514875,0.283459991,0.147620007,0.130349994,0.417919993,0.135839984
ES-LM2,8,3.8,,,700,16,ICOS,,,,,39.934592,-5.775881,SAV,,4,2,2014,2020,1.22006987,0.284200013,0.148980007,0.12974,0.420899987,0.135220006
ES-LMa,15,3.8,,278,,,FLUXNET2015,LT,1.32,,60,39.9426918,-5.773359776,SAV,Csa,8,2,,,0.958286999,0.282020003,0.146280006,0.130260006,0.415679991,0.135739997
ES-LgS,1.5,4.4,0.25,2267,,,FLUXNET2015,F15,,,58,37.09793472,-2.965830088,OSH,Csa,0.200000003,,2007,2009,0.958049825,0.314139992,0.185990006,0.122319996,0.463050008,0.128149986
ES-VDA,1.5,4.8,,1787,,,FLUXNET2015,LT,,96,,42.15217972,1.448500037,GRA,Cfb,0.5,1.4,,,2.938429025,0.355670005,0.205679998,0.142460003,0.501380026,0.149990007
FI-Hyy,23,2.4,0.1,181,709,3.8,ICOS,F15,1.258,105,61,61.84749985,24.29500008,ENF,Dfc,18.45,6.7,1996,2023,9.972407189,0.365359992,0.242039993,0.112910002,0.555249989,0.123319998
FI-Jok,,,,109,627,4.6,FLUXNET2015,,,,,60.8986,23.5134,CRO,,,,2000,2003,1.210226835,0.45025,0.256489992,0.179839998,0.58901,0.193760008
FI-Kaa,5,6.5,,159,,,FLUXNET2015,LT,,19,62,69.14069366,27.29503059,WET,Dfc,0.800000012,0.7,,,1.254246353,0.291900009,0.193549007,0.091101997,0.514680028,0.098351002
FI-Ken,,,,,484,-1.4,ICOS,,,,,67.98721,24.24301,,Dfc,,,2018,2023,2.039904349,0.342200011,0.232600003,0.10108,0.534359992,0.109600008
FI-Let,27,2.4,,111,627,4.6,ICOS,F15,,123,63,60.64183,23.95952,ENF,Dfc,19.2,6.7,2009,2023,10.08134283,0.375470012,0.243849993,0.12071,0.560599983,0.13162002
FI-Lom,3,6.5,,274,484,-1.4,FLUXNET2015,F15,,40,64,67.99720001,24.20918083,WET,Dfc,0.400000006,1,,,1.884160812,0.319160014,0.218150005,0.093007997,0.523829997,0.10101001
FI-Qvd,,5.6,,,650,54,ICOS,,,,,60.295242,22.391607,CRO,,,,2018,2020,4.29912103,0.426470011,0.238900006,0.171460003,0.596599996,0.187570006
FI-Sii,8,6.5,,160,701,3.5,ICOS,,,,,61.83265,24.19285,WET,,4,0.9,2016,2023,1.720595327,0.386330009,0.251179993,0.124260001,0.563049972,0.135150015
FI-Sod,23,2.4,0.1,180,500,-1,FLUXNET2015,F15,1.05,56,65,67.36186218,26.63783073,ENF,Dfc,12.69999981,1.2,2001,2014,4.120204959,0.299569994,0.200466007,0.091555998,0.517390013,0.099103987
FI-Var,35,2.4,,,601,-0.5,ICOS,,,,,67.7549,29.61,ENF,,25,1.2,2016,2023,2.885085311,0.342519999,0.235719994,0.097386003,0.541670024,0.106800005
FR-Aur,,5.6,,,,12.9,ICOS,,,,,43.54965,1.10615,CRO,,,,2005,2023,2.667114532,0.329809994,0.170300007,0.153249994,0.43761,0.159509987
FR-Bil,35,4.5,,,930,12.8,ICOS,,,,,44.493672,-0.956082,ENF,,25,3.2,2014,2023,8.20905097,0.251190007,0.13594,0.110820003,0.416900009,0.115250006
FR-EM2,2,5.6,,,680,10.8,ICOS,,,,,49.8721083,3.02065,CRO,,1,6,,,0.000745446,0.329620004,0.196239993,0.128380001,0.430409998,0.133380011
FR-FBn,,4.6,,,700,13.6,ICOS,,,,,43.2403,5.6786,MF,,,,2008,2023,11.24300993,0.32596001,0.176420003,0.143150002,0.457439989,0.149540007
FR-Fon,35,5.5,,103,720,10.2,FLUXNET2015,F15,2.4,132,66,48.47639847,2.780139923,DBF,Cfb,24,5.2,,,18.17981337,0.302439988,0.180050001,0.117310002,0.432359993,0.122389987
FR-Gri,3.170000076,5.6,0.12,125,650,12,FLUXNET2015,,,,,48.84421921,1.951910019,CRO,,1,,,,0.150567783,0.32604,0.181270003,0.139219999,0.43167001,0.144769996
FR-Hes,18,5.5,,293,820,9.2,ICOS,LT,2.3,127,67,48.67416,7.065559864,DBF,Cfb,16,4.6,2014,2023,16.35651403,0.344929993,0.195810005,0.142700002,0.468809992,0.149119988
FR-LBr,38,4.5,0.1,61,900,13.6,FLUXNET2015,F15,1.26,71,68,44.71710968,-0.769299984,ENF,Cfb,20,3.2,1996,2008,5.922394485,0.251720011,0.134419993,0.113399997,0.434359998,0.117300019
FR-LGt,,6.5,,,880,11,ICOS,,,,,47.322917,2.284102,WET,,,,2017,2020,8.863071663,0.255670011,0.157548994,0.093767002,0.415549994,0.098121017
FR-Lam,,5.6,,,,12.55,ICOS,,,,,43.496437,1.237878,CRO,,,,2005,2023,4.134971226,0.300089985,0.163000003,0.131720006,0.413590014,0.137089983
FR-Lq1,2,,,1066,,,FLUXNET2015,,,,,45.64305878,2.735830069,,,0.5,,,,1.55258939,0.359219998,0.217500001,0.134599999,0.500940025,0.141719997
FR-Lq2,2,,,1081,,,FLUXNET2015,,,,,45.63919067,2.737030029,,,0.5,,,,2.753200163,0.363240004,0.217730001,0.138219997,0.502719998,0.145510003
FR-Pue,11,4.1,,270,883,13.5,FLUXNET2015,F15,1.23,96,69,43.74139023,3.595829964,EBF,Csa,6.5,2.9,2000,2014,3.260583005,0.338539988,0.183870003,0.147850007,0.470809996,0.154669985
FR-Tou,,,,,638,13.8,ICOS,,,,,43.572855,1.37474,GRA,,,,2018,2023,0.538870456,0.294970006,0.160490006,0.129010007,0.421050012,0.13448
GF-Guy,55,4.1,0.11,48,3041,25.7,FLUXNET2015,F15,1.59,275.5,70,5.278771877,-52.92485809,EBF,Am,35,6.74,,,21.94883797,0.363869995,0.167070001,0.187480003,0.49131,0.196799994
GH-Ank,,4.1,,124,1900,26,FLUXNET2015,F15,,184,71,5.2685,-2.6942,EBF,Aw,27,,2011,2014,10.82097951,0.29065001,0.137700006,0.147599995,0.452360004,0.152950004
GL-Dsk,,,,,420,-3,ICOS,,,,,69.25349,-53.51413,SNO,,,,2020,2023,,0.336789995,0.198050007,0.130759999,0.519659996,0.138739988
HU-Bug,4,2.9,,106,,,FLUXNET2015,LT,2.15,0,,46.69110107,19.60129929,GRA,Cfb,1,4.7,,,0,0.221650004,0.114670001,0.10486,0.420980006,0.106980003
ID-Pag,41,,,30,2546,26.2,FLUXNET2015,,,,,-2.319999933,113.9000015,EBF,,26,,,,16.41663699,0.580749989,0.265320003,0.266099989,0.732379973,0.315429986
IE-Ca1,1.899999976,,,72,,,FLUXNET2015,,,,,52.85879135,-6.918139935,,,0.899999976,,,,0.362131246,0.347550005,0.201649994,0.138620004,0.496939987,0.145900011
IE-Cra,,6.5,,,820,9.6,ICOS,,,,,53.323088,-7.641774,WET,,,,2020,2020,0.035681902,0.315829992,0.191320002,0.117579997,0.506829977,0.12450999
IE-Dri,6,5.4,,186,,,FLUXNET2015,LT,,5,,51.98669052,-8.751810074,GRA,Cfb,0.5,,,,0.565181456,0.354880005,0.219129995,0.128570005,0.505649984,0.135750011
IL-Yat,15,4.5,,,285,18.2,ICOS,LT,0.974,0,72,31.34504459,35.05198851,ENF,BSh,10,2.5,2000,2020,1.879667485,0.306410015,0.135100007,0.164639995,0.41297999,0.171310008
IT-Amp,4,2.9,,991,,,FLUXNET2015,LT,1.599,36,73,41.90409851,13.60515976,GRA,Cfa,0.5,2.5,,,0.69915237,0.345829993,0.179389998,0.159270003,0.468430012,0.166439995
IT-BCi,2,5.6,0.19,20,600,18,ICOS,,,,,40.5237999,14.95744038,CRO,,1,6,2004,2023,0.109593776,0.322369993,0.159840003,0.156079993,0.433530003,0.16252999
IT-BFt,,4.9,,,650,13.2,ICOS,,,,,45.197755,10.741966,DBF,,,,2019,2023,15.1588288,0.295700014,0.163310006,0.126849994,0.434590012,0.132390007
IT-CA1,8,4.7,0.11,200,766,14,FLUXNET2015,F15,,0,74,42.38040924,12.02655983,DBF,Csa,5.5,,,,0.481499391,0.314179987,0.1567,0.151319996,0.423240006,0.157479987
IT-CA2,3.200000048,5.6,0.12,200,766,14,FLUXNET2015,,,,,42.37722015,12.02604008,CRO,,0.300000012,,,,0.082340933,0.314179987,0.1567,0.151319996,0.423240006,0.157479987
IT-CA3,7,4.7,0.11,197,766,14,FLUXNET2015,F15,,0,74,42.38000107,12.02219963,DBF,Csa,3.5,,2011,2014,0.493821979,0.316170007,0.155949995,0.153960004,0.424299985,0.160220012
IT-Col,25.20000076,4.7,0.11,1560,1180,6.3,FLUXNET2015,F15,2.503,168,75,41.84936142,13.58813953,DBF,Csa,13,6.6,1996,2014,15.06520421,0.383109987,0.222670004,0.151889995,0.521979988,0.160439983
IT-Cp2,20,4.1,,19,805,15.2,ICOS,F15,,115,76,41.70426559,12.35729313,EBF,Csa,12.8,3.5,2012,2023,13.47636387,0.313050002,0.167840004,0.138899997,0.464630008,0.145209998
IT-Cpz,15,4.1,0.11,68,780,15.6,FLUXNET2015,F15,1.5,139,77,41.70524979,12.37611008,EBF,Csa,13,3.5,1997,2009,13.76375628,0.307610005,0.165999994,0.135480002,0.464280009,0.141610011
IT-Isp,38,4.9,0.11,210,1300,12.2,FLUXNET2015,,,,,45.81264114,8.633580208,DBF,,19,,2013,2014,7.160179257,0.292400002,0.179240003,0.108130001,0.442550004,0.113159999
IT-LMa,28,,,350,,,FLUXNET2015,,,,,45.15258026,7.582590103,,,25,,,,9.660407873,0.290450007,0.170699999,0.114589997,0.436949998,0.119750008
IT-Lav,33,4.5,0.1,1353,1291,7.8,FLUXNET2015,,,,,45.95619965,11.28131962,ENF,,28,,,,12.99032792,0.421299994,0.258230001,0.151429996,0.572139978,0.163069993
IT-Lsn,8,4.4,,,1083,13.1,ICOS,,,,,45.740481,12.750297,OSH,,4,1.5,2016,2023,0.056355212,0.340689987,0.175980002,0.158050001,0.451570004,0.164709985
IT-MBo,2.5,2.9,0.16,1550,1214,5.1,FLUXNET2015,F15,2.139,30,79,46.01467896,11.04582977,GRA,Dfb,0.300000012,2.5,,,1.290924571,0.405140013,0.251800001,0.142700002,0.560930014,0.153340012
IT-Mal,3,2.9,,1610,,,FLUXNET2015,LT,,157,73,46.1140213,11.70333958,GRA,Cfb,0.5,,,,4.870637856,0.399010003,0.251159996,0.138449997,0.547779977,0.147850007
IT-Noe,3,4.6,0.25,25,588,15.9,FLUXNET2015,F15,,97,80,40.60617828,8.151689529,CSH,Csa,1.200000048,2.1,2004,2014,2.710497249,0.322519988,0.168019995,0.147829995,0.462269992,0.154499993
IT-Non,13,4.6,,14,,,FLUXNET2015,LT,,0,81,44.69018936,11.0910902,MF,Cfa,7,1.7,,,6.938897678,0.348749995,0.173570007,0.167970002,0.458380014,0.175179988
IT-PT1,30,4.9,0.11,60,984,12.7,FLUXNET2015,F15,,28,82,45.20087051,9.061039925,DBF,Cfa,26,4.45,2002,2004,3.149318255,0.307500005,0.171350002,0.130459994,0.440210015,0.136150002
IT-Ren,40,3.3,0.1,1730,809.3,4.7,FLUXNET2015,F15,1.237,144.5,83,46.58686066,11.43369007,ENF,Dfc,28,5.11,,,6.993562761,0.343659997,0.223849997,0.112410001,0.517289996,0.11981
IT-Ro1,20,4.9,0.11,235,876.2,15.15,FLUXNET2015,F15,,77,84,42.4081192,11.93000984,DBF,Csa,15,4.3,2000,2008,7.479510205,0.323760003,0.16347,0.153919995,0.435460001,0.160290003
IT-Ro2,20,4.9,0.11,160,876.2,15.15,FLUXNET2015,F15,,94,85,42.39025879,11.92092991,DBF,Csa,15,4.08,2002,2012,7.707388299,0.308710009,0.154499993,0.148120001,0.421990007,0.154210016
IT-SR2,23.5,4.5,0.1,4,920,14.2,ICOS,,,,,43.73202896,10.29090977,ENF,,19,5.11,2013,2023,5.286676165,0.330969989,0.171979994,0.15174,0.484329998,0.158989996
IT-SRo,23.5,4.5,0.1,6,920,14.2,FLUXNET2015,,,,,43.7278595,10.28444004,ENF,,16,,1999,2012,3.032946035,0.330969989,0.171979994,0.15174,0.484329998,0.158989996
IT-Tor,2,4.2,,2160,2.9,2.9,ICOS,F15,1.13,70,86,45.84444,7.578055,GRA,Dfc,0.2,2.2,2008,2023,2.0464046,0.369879991,0.241029993,0.11947,0.546150029,0.128849998
JP-SMF,19,,,199,,,FLUXNET2015,,,,,35.26169968,137.0787964,MF,,8.100000381,,,,12.417289,0.316489995,0.181590006,0.128889993,0.461690009,0.134899989
MY-PSO,,4.6,,,,,FLUXNET2015,F15,2.099,315,88,2.973,102.3062,EBF,Af,35,6.52,2003,2009,21.10463519,0.33781001,0.163670003,0.166449994,0.475010008,0.174140006
NL-Ca1,3,5.4,,1,,,FLUXNET2015,LT,,3,89,51.97100067,4.927000046,GRA,Cfb,0.5,3,,,0.272307314,0.356999993,0.165900007,0.183029994,0.463279992,0.191099986
NL-Hor,4.699999809,,,2.200000048,800,10,FLUXNET2015,,,,,52.24034882,5.07130003,GRA,,1,,2004,2011,0.867662164,0.331730008,0.185350001,0.139190003,0.494780004,0.146380007
NL-Loo,27,4.7,0.1,25,786,9.8,ICOS,F15,1.992,154,90,52.1665802,5.743559837,ENF,Cfb,18.7,2.1,,,17.2829887,0.067631997,0.005559,0.062073,0.466829985,0.062072997
PL-wet,2.5,,,55,,,FLUXNET2015,,,,,52.7621994,16.30940056,,,1,,,,1.287270254,0.205070004,0.117687002,0.086240001,0.506640017,0.087383002
PT-Esp,33,4.1,,90,,,FLUXNET2015,LT,,0,92,38.63940048,-8.601799965,EBF,Csa,20,4.5,,,2.943686589,0.240339994,0.129299998,0.107139997,0.415080011,0.111039996
PT-Mi1,29,4.1,,230,,,FLUXNET2015,LT,1.5,0,93,38.54064178,-8.000060081,EBF,Csa,7.300000191,2.3,,,1.690733092,0.247779995,0.133310005,0.110009998,0.408760011,0.11446999
PT-Mi2,2.5,4.8,,193,,,FLUXNET2015,LT,,0,93,38.47650146,-8.024550438,GRA,Csa,0.100000001,2.5,,,0.079198015,0.254269987,0.136010006,0.113430001,0.399859995,0.118259981
RU-Che,5.300000191,6.5,,6,197,-11,FLUXNET2015,F15,,0,94,68.61303711,161.3414307,WET,Dfc,0.400000006,,,,0.002516969,0.45965001,0.302040011,0.145620003,0.590699971,0.157609999
RU-Fy2,27,3.5,,,3.9,3.9,ICOS,,,,,56.447603,32.901878,ENF,,18.7,3,2015,2020,11.64895576,0.403019994,0.271039993,0.12218,0.560670018,0.131980002
RU-Fyo,48,3.5,0.1,265,3.9,3.9,ICOS,F15,1.26,141,96,56.46152878,32.92208099,ENF,Dfb,27.5,3,1998,2020,12.44884905,0.384380013,0.250510007,0.1241,0.552890003,0.133870006
RU-Zot,30,3.5,,124,,,FLUXNET2015,LT,0.99,82,98,60.80080032,89.35079956,ENF,Dfc,12,1.5,,,4.408562011,0.369129986,0.228870004,0.131679997,0.531210005,0.140259981
SD-Dem,2.5,3.8,0.19,500,320,26,FLUXNET2015,F15,,0,99,13.28289986,30.47830009,SAV,BWh,1.5,1.4,2005,2009,0.040944819,0.166189998,0.072930001,0.092928998,0.37371999,0.093259998
SE-Deg,1.799999952,6.5,,270,523,1.2,ICOS,LT,,26,100,64.18196869,19.55653954,WET,Dfc,0.05,0.9,2001,2023,0.9363489,0.330469996,0.223169997,0.097560003,0.54124999,0.107299998
SE-Htm,27,5.1,,,707,7.4,ICOS,,,,,56.09763,13.41897,ENF,,18.7,7.6,2015,2023,12.41001025,0.272949994,0.171049997,0.096098997,0.512179971,0.101899996
SE-Lnn,2,5.6,,,558,6,ICOS,,,,,58.34062958,13.10176754,CRO,,1,6,,,0.047535324,0.333590001,0.187979996,0.138830006,0.48003,0.145610005
SE-Nor,27,2.4,,,527,5.5,ICOS,,,,,60.08649722,17.47950278,ENF,,18.7,6.7,2014,2023,15.20077229,0.35194999,0.220349997,0.119589999,0.564549983,0.131599993
SE-Ros,27,2.4,,,614,1.8,ICOS,,,,,64.1725,19.738,ENF,,18.7,3.4,2014,2020,8.185449908,0.351749986,0.242300004,0.099294998,0.549470007,0.109449983
SE-Svb,27,2.4,,,614,1.8,ICOS,,,,,64.25611,19.7745,ENF,,18.7,3.4,2014,2023,11.07287857,0.346569985,0.231659994,0.103869997,0.554369986,0.114909992
UK-Gri,15.39999962,4.7,,343,,,FLUXNET2015,LT,0.9,186,103,56.6072197,-3.79805994,ENF,Cfb,10,7,,,12.99772756,0.321420014,0.209680006,0.104780003,0.509819984,0.111740008
UK-Ham,28,,,76,,,FLUXNET2015,,,,,51.15353012,-0.858299971,,,22,,,,18.59929236,0.330920011,0.191259995,0.133750007,0.456999987,0.139660016
UK-PL3,30.5,,,104,,,FLUXNET2015,,,,,51.45000076,-1.266669989,,,22,,,,10.42221186,0.333009988,0.192080006,0.134819999,0.463330001,0.140929982
US-AR1,3.13,3.4,0.16,611,,,FLUXNET2015,F15,,0,104,36.42670059,-99.41999817,GRA,Cfa,1,,2009,2012,0.321858442,0.235389993,0.130610004,0.100359999,0.389180005,0.104779989
US-AR2,3.25,3.6,0.16,646,,,FLUXNET2015,F15,,0,105,36.63579941,-99.59750366,GRA,Cfa,1,,2009,2012,0,0.184349999,0.100934997,0.081348002,0.377759993,0.083415002
US-ARM,60,3.8,0.19,314,843,14.76,FLUXNET2015,,,,,36.60580063,-97.48880005,CRO,,0.5,,2003,2012,0.027944695,0.318269998,0.182539999,0.130649999,0.420560002,0.135729998
US-Aud,4,,,1466,,,FLUXNET2015,,,,,31.59070015,-110.509201,GRA,,0.5,,,,0.246764432,0.267500013,0.121519998,0.140699998,0.403030008,0.145980015
US-Bar,26.5,,,270,,,FLUXNET2015,,,,,44.06464005,-71.28807831,DBF,,21,,,,16.85811232,0.298460007,0.199883997,0.092436001,0.496179998,0.098576009
US-Bkg,4,3.6,,495,,,FLUXNET2015,LT,,0,106,44.34529114,-96.83616638,GRA,Dfa,1,3,,,0.207522837,0.321749985,0.175830007,0.140100002,0.437379986,0.145919979
US-Blo,15,2.6,0.1,1315,1226,11.09,FLUXNET2015,F15,1.407,236,107,38.89530182,-120.6327515,ENF,Csa,4.699999809,4.63,1997,2007,8.028341055,0.333660007,0.203779995,0.123319998,0.490119994,0.129880011
US-Bo1,3,,,217,,,FLUXNET2015,,,,,40.00619888,-88.29039764,CRO,,3,,,,0.062210489,0.344810009,0.191970006,0.147049993,0.44137001,0.152840003
US-Cop,3,3.9,0.16,1520,,,FLUXNET2015,F15,,0,109,38.09000015,-109.3899994,GRA,Dfa,0.5,,2001,2007,0.003651543,0.243699998,0.12624,0.112489998,0.377620012,0.117459998
US-FPe,3.5,3.6,,638,,,FLUXNET2015,LT,,0,,48.30770111,-105.1018982,GRA,BSk,0.300000012,2.5,,,0.003848615,0.296869993,0.128859997,0.161530003,0.396259993,0.168009996
US-GLE,30.2,2.6,0.1,3197,1200,0.8,FLUXNET2015,F15,,108,,41.36650085,-106.2398987,ENF,Dfc,10,4.5,,,3.361761233,0.339419991,0.214000002,0.118539996,0.503040016,0.125419989
US-Goo,4,4.2,0.16,87,1425.77,15.89,FLUXNET2015,F15,,26,112,34.25469971,-89.87349701,GRA,Cfa,0.300000012,2,2002,2006,5.417080964,0.321209997,0.218380004,0.098829001,0.434280008,0.102829993
US-Ha1,29,4.7,,340,1071,6.62,FLUXNET2015,F15,1.972,187,113,42.53779984,-72.17150116,DBF,Dfb,25,5.2,,,15.63643823,0.284610003,0.190457001,0.087798998,0.50049001,0.094153002
US-Ho1,31,5.8,,60,1070,5.27,FLUXNET2015,LT,1.16,194,114,45.20410156,-68.74019623,ENF,Dfb,20,5.8,,,15.21695016,0.306120008,0.203390002,0.096312001,0.501100004,0.102730006
US-IB2,3.76,4.2,,226.5,930.25,9.04,FLUXNET2015,,,,,41.8406,-88.241,GRA,,,,2004,2011,0.153577874,0.327740014,0.17915,0.142700002,0.440349996,0.148590013
US-KS2,4.1,2.9,0.25,3,1294,21.66,FLUXNET2015,F15,1.2,30,116,28.60857773,-80.67153168,CSH,Cfa,2,2.5,2003,2006,0.786016347,0.244939998,0.156740993,0.083938003,0.467159986,0.088199005
US-Los,10.2,6.5,,480,828,4.08,FLUXNET2015,F15,2.036,63,117118,46.08269882,-89.97920227,WET,Dfb,2,4.24,2000,2014,3.151366366,0.282200009,0.17622,0.100670002,0.474949986,0.105980009
US-LWW,3,,,365,805.12,16.09,FLUXNET2015,,,,,34.9604,-97.9789,GRA,,,,1989,2014,1.256803749,0.265280008,0.144749999,0.11552,0.389340013,0.120530009
US-MMS,46,4.7,0.11,275,1032,10.85,FLUXNET2015,F15,2.06,178,124,39.32320023,-86.4131012,DBF,Cfa,27,4.62,1999,2014,21.87627256,0.346439987,0.230110005,0.11163,0.459809989,0.116329983
US-MOz,32,4.7,,212,,,FLUXNET2015,LT,1.587,188,125,38.74411011,-92.20001221,DBF,Cfa,24,4.01,,,12.68915769,0.36067,0.231360003,0.124080002,0.467559993,0.129309997
US-Me2,33,2.5,0.1,1253,523,6.28,FLUXNET2015,F15,1.14,171,119,44.45230103,-121.5574036,ENF,Csb,16,3.58,2002,2014,9.578347902,0.304120004,0.195309997,0.102860004,0.488090008,0.108810008
US-Me3,18,2.5,0.1,1005,719,7.07,FLUXNET2015,F15,1.13,84,120,44.3154,-121.6078,ENF,Csb,16,0.52,2004,2009,4.525176068,0.246560007,0.149485007,0.093027003,0.447189987,0.097075
US-Me4,56,2.5,0.1,922,1038.82,7.61,FLUXNET2015,F15,1.1,134,121,44.49919891,-121.6223984,ENF,Csb,20,2,,,5.84562156,0.326050013,0.207479998,0.111890003,0.500899971,0.118570015
US-Me6,17.5,2.5,0.1,998,494,7.59,FLUXNET2015,F15,1.24,85,123,44.32329941,-121.6078033,ENF,Csb,5.199999809,1.8,,,3.055894243,0.238169998,0.145364001,0.088996001,0.441060007,0.092805997
US-Myb,5.7,6.5,,-1,338,15.9,FLUXNET2015,F15,,13,,38.04980087,-121.7650986,WET,Csa,1,,,,0.078152594,0.358289987,0.181759998,0.168760002,0.477809995,0.176529989
US-NR1,25.5,2.6,0.1,3050,800,1.5,FLUXNET2015,F15,0.983,105,126,40.03290176,-105.546402,ENF,Dfc,12,3.65,1998,2014,5.681840494,0.292079985,0.18107,0.105619997,0.467790008,0.111009985
US-Ne1,6.2,4,0.19,361,790.37,10.07,FLUXNET2015,,,,,41.1651001,-96.47660065,CRO,,3,,2001,2013,0.001074577,0.324499995,0.175779998,0.143220007,0.419649988,0.148719996
US-Ne2,6.2,4,0.12,362,788.89,10.08,FLUXNET2015,,,,,41.16490173,-96.4701004,CRO,,2.5,,2001,2013,0.018523969,0.328090012,0.176379994,0.1461,0.421689987,0.151710019
US-Ne3,6.2,4,0.19,363,783.68,10.11,FLUXNET2015,,,,,41.17969894,-96.43969727,CRO,,2.5,,2001,2013,0.033712901,0.328179985,0.175310001,0.147229999,0.420359999,0.152869985
US-Oho,34,4.7,,230,849,10.1,FLUXNET2015,F15,,100,127,41.5545,-83.8438,DBF,Dfa,24.5,4,2004,2013,18.43674646,0.254729986,0.145569995,0.105240002,0.458200008,0.109159991
US-PFa,396,,,470,823,4.33,FLUXNET2015,,,,,45.94589996,-90.27230072,MF,,30,,,,7.285341736,0.248930007,0.162803993,0.081721,0.457120001,0.086126015
US-Prr,16,2.5,0.1,210,275,-2,FLUXNET2015,F15,,29,128129,65.123703,-147.4875946,ENF,Dsc,7,0.73,2010,2014,1.975295483,0.441650003,0.320930004,0.111579999,0.572910011,0.120719999
US-SP1,32,5.8,,47,,,FLUXNET2015,LT,1.12,166,131,29.73806953,-82.21877289,ENF,Cfa,22,5.5,,,5.497363414,0.083296001,0.01904,0.064254999,0.44927001,0.064256001
US-SP2,30,5.8,,46,,,FLUXNET2015,LT,0.95,168,131,29.76479912,-82.24481964,ENF,Cfa,1,7.29,,,8.51116903,0.076302998,0.014477,0.061824001,0.451909989,0.061825998
US-SP3,30,5.8,,36,,,FLUXNET2015,LT,0.95,191,131,29.75477028,-82.16327667,ENF,Cfa,10,6.63,,,7.841942896,0.093911998,0.028403001,0.065504998,0.453420013,0.065508997
US-SRG,3.5,3.7,0.16,1291,420,17,FLUXNET2015,F15,1.77,0,132,31.7894001,-110.8276978,GRA,BSk,1,1.7,2008,2014,0.213248843,0.280519992,0.124370001,0.15061,0.417400002,0.156149991
US-SRM,8.3,3.7,0.19,1120,380,17.92,FLUXNET2015,F15,3.043,0,133,31.82139969,-110.8659973,WSA,BSk,2.5,0.5,2004,2014,0.220560408,0.276179999,0.120200001,0.150309995,0.40437001,0.155979998
US-Syv,36,5.5,0.11,540,826,3.81,FLUXNET2015,F15,1.958,124,134,46.24200058,-89.34770203,MF,Dfb,27,7.53,2001,2014,16.06932319,0.313459992,0.215682,0.090597004,0.513700008,0.097777992
US-Ton,23.5,3.3,0.19,177,559,15.8,FLUXNET2015,F15,2.13,0,135,38.43159866,-120.9660034,WSA,Csa,7.099999905,3.28,2001,2014,3.255090588,0.260670006,0.139449999,0.116169997,0.389970005,0.121220008
US-Tw4,5.36,,,-5,421,15.6,FLUXNET2015,,,,,38.10274506,-121.6413269,WET,,0.5,,,,0.055837527,0.357010007,0.171570003,0.177530006,0.467779994,0.185440004
US-Twt,3.18,,,-7,421,15.6,FLUXNET2015,,,,,38.1086998,-121.6530991,CRO,,0.5,,2009,2014,0.066832489,0.363860011,0.182050005,0.173869997,0.477730006,0.181810006
US-UMB,48,4.7,0.11,234,803,5.83,FLUXNET2015,F15,1.753,144,136,45.55979919,-84.71379852,DBF,Dfb,20,7.76,2000,2014,18.46337586,0.235750005,0.148212001,0.083835997,0.467729986,0.087538004
US-Var,2.5,3.3,0.16,129,559,15.8,FLUXNET2015,F15,2.3,1,138,38.41329956,-120.9507599,GRA,Csa,0.550000012,3.9525,2000,2014,0.810455117,0.26346001,0.142379999,0.116039999,0.392289996,0.121080011
US-WCr,29.6,4.7,0.11,520,787,4.02,FLUXNET2015,F15,1.877,95,118,45.80590057,-90.07990265,DBF,Dfb,24,5.36,1999,2014,17.28203765,0.283210009,0.190579996,0.087820999,0.461299986,0.092630014
US-Whs,6.5,3.9,0.25,1370,320,17.6,FLUXNET2015,F15,,0,,31.74379921,-110.0522003,OSH,BSk,0.5,0.57,,,0,0.227829993,0.108630002,0.115400001,0.380560011,0.119199991
US-Wkg,6.4,3.9,0.16,1531,407,15.64,FLUXNET2015,F15,2.64,0,140,31.73649979,-109.9419022,GRA,BSk,1,0.9,2004,2014,0,0.240580007,0.111639999,0.124990001,0.392019987,0.128940009
ZA-Kru,16,3.9,0.19,359,547,21.9,FLUXNET2015,F15,1.89,17,143,-25.0196991,31.49690056,SAV,Cwa,12,0.42,2000,2013,0.094662451,0.254839987,0.116949998,0.134509996,0.421869993,0.137889989
ZM-Mon,33,4,0.11,1053,945,25,FLUXNET2015,F15,,,,-15.43777847,23.25278091,DBF,Aw,12,1.7,2000,2009,0.442931435,0.112209998,0.031484999,0.080723003,0.404190004,0.080724999
AR-Vir,,5.8,,,,,FLUXNET2015,F15,,196,1,-28.24,-56.189,ENF,Cfa,14.4,,,,17.4569701,0.317719996,0.175080001,0.136199996,0.473080009,0.142639995
AU-Ade,,4.2,,,,,FLUXNET2015,F15,,,3,-13.077,131.118,SAV,Aw,12.5,2.04,2007,2009,2.261002989,0.213320002,0.100280002,0.110830002,0.384249985,0.11304
AU-Fog,,6.5,,,1323.69,27.02,FLUXNET2015,F15,,,11,-12.545,131.307,WET,Aw,1,3.4408,2006,2008,0.550133267,0.274529994,0.13154,0.138160005,0.433840007,0.142989993
AU-RDF,,4.1,,,,,FLUXNET2015,F15,,32,13,-14.564,132.478,SAV,Aw,16,,2011,2013,0.984402891,0.25466001,0.11586,0.135550007,0.422230005,0.13880001
AU-Wac,,5.5,,,1105.59,12.76,FLUXNET2015,F15,,348,14,-37.426,145.188,EBF,Cfb,80,5.01,2005,2008,10.37990924,0.356040001,0.190129995,0.156340003,0.535769999,0.165910006
BR-Ban,,4.1,,,,,,LT,,143,19,-9.824,-50.159,EBF,Aw,18,,,,9.605909379,0.294090003,0.147100002,0.141210005,0.445199996,0.146990001
BR-Ma2,,4.1,,,,,,LT,4.435,276,20,-2.609,-60.209,EBF,Aw,35,5.16,,,21.18147546,0.333050013,0.150649995,0.17464,0.467480004,0.182400018
BR-Sa1,66.8,4.1,,88,2074.79,26.13,FLUXNET2015,F15,2.219,250.5,21,-2.857,-54.959,EBF,Am,40,5.18,2002,2011,22.36948904,0.363460004,0.148540005,0.204579994,0.489719987,0.214919999
CA-Ca1,45,2.5,,,,,,LT,1.35,240,23,49.867,-125.334,ENF,Cfb,32.5,8.4,,,4.849758944,0.421030015,0.279419988,0.128470004,0.588810027,0.141610026
CA-Ca2,10,2.5,,,,,,LT,1,82,23,49.87,-125.291,ENF,Cfb,1,1.365,,,3.22277672,0.327580005,0.222350001,0.098931998,0.501919985,0.105230004
CA-Ca3,21,2.5,,,,,,LT,1,152.5,23,49.535,-124.9,ENF,Cfb,7.57,4.7,,,7.903293041,0.419470012,0.281819999,0.125819996,0.580980003,0.137650013
CA-Let,6,3.3,,,,,,LT,2.025,0,25,49.709,-112.94,GRA,Dfb,0.365,1.22,,,0,0.30625999,0.148440003,0.151580006,0.420760006,0.157819986
CA-Mer,4,6.5,,,,,,LT,0.92,14,26,45.409,-75.519,WET,Dfb,0.25,1.3,,,1.521442644,0.457989991,0.252829999,0.181639999,0.634989977,0.205159992
CA-NS3,10,5.8,,260,502.22,-2.87,,F15,1.11,36,6,55.912,-98.382,ENF,Dfc,4,5.33,,,2.078467107,0.51831001,0.218529999,0.265430003,0.65903002,0.299780011
CA-Oas,39,4.7,,530,428.53,0.34,FLUXNET2015,F15,2.376,89,28,53.629,-106.198,DBF,Dfc,21,3.04,1996,2010,16.81627553,0.457049996,0.275379986,0.163240001,0.621039987,0.18167001
CA-Obs,26,2.5,,628.94,405.6,0.79,FLUXNET2015,F15,0.843,53,29,53.987,-105.118,ENF,Dfc,11,3.41,1997,2010,4.764634111,0.485949993,0.265949994,0.172169998,0.69016999,0.219999999
CA-Ojp,29,2.5,,,,,,LT,1.099,92,30,53.916,-104.692,ENF,Dfc,16.7,2.06,,,5.161168857,0.425480008,0.234219998,0.15061,0.661620021,0.19126001
CA-SJ1,10,2.5,,,,,,LT,1.5,61,34,53.908,-104.656,ENF,Dfc,1.7,1.14,,,1.965353511,0.405339986,0.227950007,0.143739998,0.645430028,0.177389979
CA-SJ2,5,2.5,,,,,,LT,,52,35,53.945,-104.649,ENF,Dfc,0.19,0.18,,,0.30326765,0.380609989,0.220479995,0.135389999,0.621779978,0.160129994
CA-TP1,13.6,5.8,,265,1036,8,,F15,2.13,54,36,42.661,-80.56,ENF,Dfb,6.5,0.45,,,5.856319784,0.285109997,0.174659997,0.10503,0.477470011,0.11045
CA-TP3,20.5,5.8,,184,1036,8,,F15,1.13,206,36,42.707,-80.348,ENF,Dfb,16.2,5.9,,,13.79569939,0.281269997,0.171729997,0.103890002,0.502659976,0.109540001
CA-TPD,36.6,4.7,,260,1036,8,FLUXNET2015,F15,,190,37,42.635,-80.558,DBF,Dfb,25.7,3.98,2012,2014,7.821244329,0.29449001,0.175380006,0.113329999,0.483720005,0.119110003
CA-WP1,9,6.5,,,,,,LT,1.15,56,38,54.954,-112.467,WET,Dfc,3.4,2.61,,,2.034822286,0.483839989,0.26929,0.179230005,0.671519995,0.214549989
CG-Tch,,3.8,,82,1150,25.7,FLUXNET2015,F15,,4,,-4.289,11.656,SAV,Aw,2,,2006,2009,0,0.221000001,0.110639997,0.1087,0.424860001,0.110360004
CN-Ha2,,6.5,,,,,FLUXNET2015,F15,,0,,37.609,101.327,WET,ET,0.65,2.8,2003,2005,0,0.307709992,0.183270007,0.119029999,0.448190004,0.124439985
CZ-BK2,,2.9,,855,1316,6.7,FLUXNET2015,F15,,169,,49.494,18.543,GRA,Dfb,0.1,,2004,2012,10.51435634,0.359369993,0.235310003,0.116439998,0.523020029,0.12405999
DE-Spw,,6.5,,61,558,8.7,FLUXNET2015,F15,,141,,51.892,14.034,WET,Cfb,23.8,,2010,2014,13.00402962,0.232749999,0.138395995,0.091280997,0.455779999,0.094354004
DK-NuF,,6.5,,,,,,F15,,,54,64.131,-51.386,WET,ET,0.1,,,,,0.291130006,0.190760002,0.093447,0.512090027,0.100370005
HU-Mat,,2.9,,,,,,LT,,110,,47.847,19.726,GRA,Cfb,0.2,,,,4.869887445,0.31705001,0.171100006,0.139730006,0.453000009,0.145950004
IS-Gun,,5.7,,,,,,LT,,0,,63.833,-20.217,DBF,Cfb,,,,,0,0.335880011,0.219319999,0.10853,0.526449978,0.116560012
IT-La2,,4.5,,1350,1150,7.2,,F15,,180,78,45.954,11.285,ENF,Cfb,28,,,,12.50258533,0.421299994,0.258230001,0.151429996,0.572139978,0.163069993
JP-Tef,,5.5,,,,,,LT,1.63,111,,45.056,142.106,MF,Cfa,25,7.4,,,9.341004896,0.343499988,0.224680007,0.111610003,0.514609993,0.118819982
JP-Tom,,5.5,,,,,,LT,,55,87,42.739,141.515,MF,Cfa,15,9.2,,,5.867679799,0.352140009,0.227980003,0.11705,0.511950016,0.124160007
NO-Adv,,6.5,,,,,,F15,,,,78.186,15.923,WET,ET,0.4,,,,0,0.330559999,0.210830003,0.11338,0.493090004,0.119729996
PA-SPn,,4.7,,78,2350,26.5,FLUXNET2015,F15,1.555,24,91,9.318,-79.635,DBF,Am,12,5.4,2007,2009,2.316089545,0.332370013,0.157550007,0.167429999,0.458079994,0.174820006
PA-SPs,,4.2,,68,2350,26.5,FLUXNET2015,F15,,27,91,9.314,-79.631,GRA,Am,0.09,,2007,2009,3.69083517,0.348619998,0.1602,0.180179998,0.469150007,0.188419998
RU-Cok,,3.9,,48,232,-14.3,,F15,,0,95,70.829,147.494,OSH,Dsc,0.5,1.5,,,0.001510098,0.426259995,0.264649987,0.1505,0.569589972,0.161610007
RU-Ha1,,3.8,,446,591.87,-0.07,FLUXNET2015,F15,,0,97,54.725,90.002,GRA,Dwc,0.5,,2002,2004,0,0.341369987,0.209189996,0.125609994,0.490330011,0.13217999
RU-SkP,,,,246,,,FLUXNET2015,F15,,17,,62.255,129.168,DNF,Dfb,18,1,2012,2014,2.438870523,0.491329998,0.298830003,0.174160004,0.631630003,0.192499995
SE-Fla,,2.4,,,,,,LT,1.15,88,47,64.113,19.457,ENF,Dfc,12.7,3.4,,,8.243276505,0.338440001,0.226730004,0.102580003,0.53895998,0.111709997
SE-St1,,6.5,,351,303.3,-0.7,,F15,,34,101,68.354,19.05,WET,ET,0.05,,,,0.124718123,0.335209996,0.23037,0.097491004,0.520430028,0.104839996
SN-Dhr,,3.8,,40,404,29,FLUXNET2015,F15,,0,102,15.403,-15.432,SAV,BWh,1.58,,2010,2013,0.062593787,0.160270005,0.074672997,0.085285999,0.384039998,0.085597008
UK-EBu,,5.4,,,,,,LT,,18,,55.866,-3.206,GRA,Cfb,0.4,3.9,,,1.262784871,0.337550014,0.201089993,0.129270002,0.50168997,0.136460021
US-Atq,-0.065,6.5,,15,93,-9.7,,F15,,0,,70.47,-157.409,WET,ET,0.3,1.1,,,0,0.357089996,0.21661,0.128910005,0.562390029,0.140479997
US-Brw,4.18,6.5,,,,,,LT,,0,108,71.323,-156.626,WET,ET,0.1,1.1,,,0,0.382660002,0.231220007,0.141179994,0.550580025,0.151439995
US-Dk1,4.8,4.2,,,,,,LT,,136,,35.971,-79.093,GRA,Cfa,0.55,2,,,13.21385554,0.271290004,0.164780006,0.101879999,0.421009988,0.106509998
US-Dk2,41.8,4.7,,,,,,LT,1.85,141,110,35.974,-79.1,DBF,Cfa,25,7.03,,,17.20429474,0.271290004,0.164780006,0.101879999,0.421009988,0.106509998
US-FR2,7.97,3.8,,,,,,LT,1.75,43,111,29.949,-97.996,SAV,Cfa,,2.8,,,3.506079411,0.304230005,0.142460003,0.155369997,0.425989985,0.161770001
US-GBT,30.2,2.6,,3191,1200,0.8,FLUXNET2015,F15,,108,,41.366,-106.24,ENF,Dfc,14.9,3,1999,2006,3.20400475,0.339419991,0.214000002,0.118539996,0.503040016,0.125419989
US-Ivo,3.8,6.5,,568,304,-8.28,,F15,,0,115,68.487,-155.75,WET,ET,0.3,,,,0,0.561320007,0.317629993,0.208570004,0.701489985,0.243690014
US-LPH,,4.7,,,,,,LT,,150,,42.542,-72.185,DBF,Dfb,16.5,4.5,,,14.22206632,0.278310001,0.183492005,0.089394003,0.481940001,0.094817996
US-Me5,18,2.5,,1188,590.81,6.47,FLUXNET2015,F15,1.01,120,122,44.437,-121.567,ENF,Csb,4.3,1.1,2000,2002,5.938611312,0.340110004,0.217519999,0.114650004,0.523949981,0.122590005
US-SO2,4.5,2.9,,,,,,LT,0.913,3,130,33.374,-116.623,CSH,Csa,1,3,,,0.243911992,0.220939994,0.115529999,0.102459997,0.401930004,0.105409995
US-SO3,,2.9,,,,,,LT,0.913,5,130,33.377,-116.623,CSH,Csa,0.5,1.1,,,0.071993794,0.221959993,0.115929998,0.103,0.401719987,0.106029995
US-SO4,5.8,2.9,,,,,,LT,0.913,6,130,33.384,-116.64,CSH,Csa,2.3,3,,,0.163081954,0.209509999,0.108549997,0.098609,0.396109998,0.100960001
US-SRC,3.75,3.9,,950,330,22,FLUXNET2015,F15,,0,,31.908,-110.84,OSH,BSk,1.7,,2008,2014,0,0.25711,0.108649999,0.142979994,0.378210008,0.148460001
US-Tw1,4.64,6.5,,-5,421,15.5,,F15,,0,,38.107,-121.647,WET,Csa,3.43,,,,0.096397444,0.362410009,0.178029999,0.176420003,0.473650008,0.18438001
US-UMd,32,4.7,,239,803,5.83,,F15,,139,137,45.563,-84.698,DBF,Dfb,23,4.52,,,17.59061704,0.266550004,0.168899998,0.092808999,0.467400014,0.097650006
US-Wi3,26,4.7,,411,,,,F15,,75,139,46.635,-91.099,DBF,Dfb,20.5,3.9,,,15.86783612,0.339659989,0.204750001,0.128010005,0.495719999,0.134909987
US-Wi4,23,5.8,,352,,,,F15,,126,139,46.739,-91.166,ENF,Dfb,18,2.8,,,15.93548477,0.354750007,0.213489994,0.132650003,0.528240025,0.141260013
US-WPT,3.2,6.5,,175,849,10.1,FLUXNET2015,F15,,6,,41.465,-82.996,WET,Dfa,1.7,,2011,2013,0.729831771,0.385360003,0.211309999,0.165419996,0.512690008,0.174050003
US-Wrc,67,2.5,,,,,,LT,0.75,224,141,45.82,-121.952,ENF,Csb,24.3,8.7,,,25.41308524,0.329059988,0.216690004,0.105209999,0.513859987,0.112369984
VU-Coc,,4.1,,,,,,LT,,29,142,-15.443,167.192,EBF,Af,16,5.65,,,3.464079088,0.365509987,0.176599994,0.180429995,0.482080013,0.188909993
AR-TF1,2.33,6.5,,40,,,AMF_FLX,,,,,-54.9733,-66.7335,WET,,,,2016,2018,0.688526721,0.359649986,0.226640001,0.125359997,0.518069983,0.133009985
BR-CST,10,,,468,642,25.2,AMF_FLX,,,,,-7.9682,-38.3842,DNF,Bsh,,,2014,2015,4.339988601,0.267379999,0.12139,0.140709996,0.402770013,0.145989999
BR-Npw,20,3.7,,120,1486,24.9,AMF_FLX,,,,,-16.498,-56.412,WSA,Aw,,,2013,2017,4.54354495,0.258569986,0.135429993,0.118330002,0.41148001,0.123139992
CA-ARB,7.5,6.5,,90,700,-1.3,AMF_FLX,,,,,52.695,-83.9452,WET,Dfb,,,2011,2015,0.034255513,0.410490006,0.232840002,0.164299995,0.57656002,0.177650005
CA-ARF,7.5,6.5,,88,700,-1.3,AMF_FLX,,,,,52.7008,-83.955,WET,Dfb,,,2011,2015,0.083016981,0.400590003,0.230020002,0.157739997,0.572210014,0.170570001
CA-Ca1,45,2.5,,300,1369,9.93,AMF_FLX,,,,,49.8673,-125.3336,ENF,Cfb,,,1996,2010,4.849758944,0.421030015,0.279419988,0.128470004,0.588810027,0.141610026
CA-Ca2,10,2.5,,300,1474,9.86,AMF_FLX,,,,,49.8705,-125.2909,ENF,Cfb,,,1999,2010,3.22277672,0.327580005,0.222350001,0.098931998,0.501919985,0.105230004
CA-Cbo,44,4.7,,120,876.34,6.66,AMF_FLX,,,,,44.3167,-79.9333,DBF,Dfb,,,1994,2020,17.65548117,0.312339991,0.199550003,0.106239997,0.50120002,0.112789989
CA-CF1,4,6.5,,16.5,452,-6.5,AMF_FLX,,,,,58.6658,-93.83,WET,Dfc,,,2007,2008,0,0.364140004,0.211060002,0.144449994,0.522899985,0.153080001
CA-DB2,3,6.5,,4,,,AMF_FLX,,,,,49.119,-122.9951,WET,,,,2019,2020,0.668984684,0.283789992,0.186618,0.091797002,0.47852999,0.097171992
CA-DBB,4.25,6.5,,4,1128,10,AMF_FLX,,,,,49.1293,-122.9849,WET,Csb,,,2014,2020,0.526913132,0.287239999,0.188334003,0.093276002,0.485280007,0.098905995
CA-ER1,5,4,,370,946,6.7,AMF_FLX,,,,,43.6405,-80.4123,CRO,Dfb,,,2015,2020,0.043008808,0.399049997,0.249770001,0.140200004,0.543150008,0.149279997
CA-Gro,43,5.5,,340,831,1.3,AMF_FLX,,,,,48.2167,-82.1556,MF,Dfb,,,2003,2014,15.88334135,0.503099978,0.276760012,0.186900005,0.68572998,0.226339966
CA-LP1,26,2.5,,751,570,2,AMF_FLX,,,,,55.1119,-122.8414,ENF,Csa,,,2007,2022,2.750781859,0.493629992,0.289180011,0.17238,0.66970998,0.204449981
CA-MA1,3,4,,261,514,2.6,AMF_FLX,,,,,50.1645,-97.8762,CRO,Dfb,,,2009,2011,0.133201431,0.404839993,0.215210006,0.177780002,0.554560006,0.189629987
CA-MA2,3,4,,261,514,2.6,AMF_FLX,,,,,50.171,-97.8762,CRO,Dfb,,,2009,2011,0.354995294,0.414119989,0.221959993,0.179639995,0.563510001,0.192159995
CA-MA3,3,3.6,,261,514,2.6,AMF_FLX,,,,,50.1774,-97.8686,GRA,Dfb,,,2009,2011,0.374964782,0.412349999,0.218920007,0.180600002,0.565039992,0.193429992
CA-NS1,24,5.8,,260,500.29,-2.89,AMF_FLX,,,,,55.8792,-98.4839,ENF,Dfc,,,2001,2005,3.503260668,0.427289993,0.194150001,0.21751,0.562820017,0.233139992
CA-NS2,20,5.8,,260,499.82,-2.88,AMF_FLX,,,,,55.9058,-98.5247,ENF,Dfc,,,2001,2005,4.62709343,0.445639998,0.205300003,0.222210005,0.585979998,0.240339994
CA-NS3,10,5.8,,260,502.22,-2.87,AMF_FLX,,,,,55.9117,-98.3822,ENF,Dfc,,,2001,2005,2.078467107,0.51831001,0.218529999,0.265430003,0.65903002,0.299780011
CA-NS4,10,5.8,,260,502.22,-2.87,AMF_FLX,,,,,55.9144,-98.3806,ENF,Dfc,,,2001,2005,1.994662071,0.51831001,0.218529999,0.265430003,0.65903002,0.299780011
CA-NS5,9,5.8,,260,500.34,-2.86,AMF_FLX,,,,,55.8631,-98.485,ENF,Dfc,,,2001,2005,2.462124562,0.456609994,0.215920001,0.220840007,0.603550017,0.240689993
CA-NS6,6,3.9,,244,495.37,-3.08,AMF_FLX,,,,,55.9167,-98.9644,OSH,Dfc,,,2001,2005,0.189375887,0.403849989,0.193149999,0.198620006,0.537519991,0.21069999
CA-NS7,6,3.9,,297,483.27,-3.52,AMF_FLX,,,,,56.6358,-99.9483,OSH,Dfc,,,2001,2005,0.112513011,0.413390011,0.200069994,0.200000003,0.554359972,0.213320017
CA-Qfo,24,5.8,,382,962.32,-0.36,AMF_FLX,,,,,49.6925,-74.3421,ENF,Dfc,,,2003,2010,1.493736483,0.481409997,0.27956,0.164230004,0.673609972,0.201849997
CA-SF1,12.1,2.5,,536,470,0.4,AMF_FLX,,,,,54.485,-105.8176,ENF,Dfc,,,2003,2006,2.211926456,0.508979976,0.272799999,0.188170001,0.69976002,0.236179978
CA-SF2,9.144,2.5,,520,470,0.4,AMF_FLX,,,,,54.2539,-105.8775,ENF,Dfc,,,2001,2006,3.55293442,0.473509997,0.269749999,0.173299998,0.658779979,0.203759998
CA-TP1,13.6,5.8,,265,1036,8,AMF_FLX,,,,,42.6609,-80.5595,ENF,Dfb,,,2002,2017,5.856319784,0.285109997,0.174659997,0.10503,0.477470011,0.11045
CA-TP3,20.5,5.8,,184,1036,8,AMF_FLX,,,,,42.7068,-80.3483,ENF,Dfb,,,2002,2017,13.79569939,0.281269997,0.171729997,0.103890002,0.502659976,0.109540001
CA-TPD,36.6,4.7,,260,1036,8,FLUXNET2015,,,,,42.6353,-80.5577,DBF,Dfb,,,2012,2014,7.821244329,0.29449001,0.175380006,0.113329999,0.483720005,0.119110003
MX-Tes,13,4.7,,460,647,24.3,AMF_FLX,,,,,27.8446,-109.2977,DBF,Bsh,,,2004,2008,0.138440335,0.325859994,0.129030004,0.18897,0.431300014,0.19682999
PE-QFR,40,6.5,,104,,,AMF_FLX,,,,,-3.8344,-73.319,WET,Af,,,2018,2019,7.761467179,0.262010008,0.147679999,0.110189997,0.462830007,0.114330009
US-A32,3.77,3.4,,335,889,33.9,AMF_FLX,,,,,36.8193,-97.8198,GRA,Cfa,,,2015,2017,0.000928823,0.310860008,0.178430006,0.12748,0.413040012,0.132430002
US-A74,3.77,3.8,,337,889,33.9,AMF_FLX,,,,,36.8085,-97.5489,CRO,Cfa,,,2016,2017,0,0.315800011,0.183929995,0.126959994,0.416570008,0.131870016
US-ALQ,2.4,6.5,,,,,AMF_FLX,,,,,46.0308,-89.6067,WET,Dfb,,,2015,2023,11.64552765,0.297740012,0.194230005,0.097127996,0.501259983,0.103510007
US-AR1,3.13,3.4,,611,,,AMF_FLX,,,,,36.4267,-99.42,GRA,Dsa,,,2009,2012,0.321858442,0.235389993,0.130610004,0.100359999,0.389180005,0.104779989
US-AR2,3.25,3.6,,646,,,AMF_FLX,,,,,36.6358,-99.5975,GRA,Dsa,,,2009,2012,0,0.184349999,0.100934997,0.081348002,0.377759993,0.083415002
US-ARb,4,3.4,,424,,,AMF_FLX,,,,,35.5497,-98.0402,GRA,Cfa,,,2005,2006,0,0.280539989,0.157179996,0.118419997,0.397680014,0.123359993
US-ARc,4.05,3.4,,424,,,AMF_FLX,,,,,35.5465,-98.04,GRA,Cfa,,,2005,2006,0.007555919,0.270249993,0.149780005,0.115510002,0.394829988,0.120469987
US-ARM,60,3.8,,314,843,14.76,AMF_FLX,,,,,36.6058,-97.4888,CRO,Cfa,,,2003,2023,0.027944695,0.318269998,0.182539999,0.130649999,0.420560002,0.135729998
US-Bar,26.5,4.7,,272,1245.77,5.61,AMF_FLX,,,,,44.0646,-71.2881,DBF,Dfb,,,2004,2022,16.85811232,0.298460007,0.199883997,0.092436001,0.496179998,0.098576009
US-Bi1,3.9,3.8,,-2.7,338,16,AMF_FLX,,,,,38.0992,-121.4993,CRO,Csa,,,2016,2021,0,0.36383,0.164320007,0.190990001,0.465629995,0.199509993
US-Bi2,5.11,3.8,,-5,338,16,AMF_FLX,,,,,38.1091,-121.5351,CRO,Csa,,,2017,2021,0.02990881,0.374500006,0.183850005,0.182139993,0.484829992,0.190650001
US-BRG,3,4.2,,180,1200,11.8,AMF_FLX,,,,,39.2167,-86.5406,GRA,Cfa,,,2016,2020,7.376866434,0.336140007,0.217759997,0.113750003,0.447450012,0.11838001
US-BZB,3,6.5,,100,274,-2.4,AMF_FLX,,,,,64.6955,-148.3208,WET,Dfd,,,2011,2022,1.348499094,0.451429993,0.320129991,0.122340001,0.56923002,0.131300002
US-BZF,2,6.5,,95,274,-2.4,AMF_FLX,,,,,64.7013,-148.3121,WET,Dfd,,,2011,2022,2.265019032,0.441960007,0.322100013,0.111589998,0.563960016,0.119859993
US-BZo,2.2,6.5,,100,274,-2.4,AMF_FLX,,,,,64.6936,-148.33,WET,Dfd,,,2018,2022,3.172888915,0.437920004,0.317209989,0.11287,0.556879997,0.120710015
US-BZS,5,2.5,,100,274,-2.4,AMF_FLX,,,,,64.6963,-148.3235,ENF,Dfd,,,2010,2021,2.519268226,0.451429993,0.320129991,0.122340001,0.56923002,0.131300002
US-CF1,2.1,3.8,,794,550,9,AMF_FLX,,,,,46.7815,-117.0821,CRO,Dsb,,,2017,2021,0,0.325670004,0.190390006,0.130239993,0.417789996,0.135279998
US-CF2,2.1,3.8,,807,550,9,AMF_FLX,,,,,46.784,-117.0908,CRO,Dsb,,,2017,2020,0,0.320490003,0.190050006,0.125589997,0.41554001,0.130439997
US-CF3,2.1,3.8,,795,550,9,AMF_FLX,,,,,46.7551,-117.1261,CRO,Dsb,,,2017,2021,0,0.317629993,0.188649997,0.124190003,0.414550006,0.128979996
US-CF4,2.1,3.8,,795,550,9,AMF_FLX,,,,,46.7518,-117.1285,CRO,Dsb,,,2017,2021,0,0.317629993,0.188649997,0.124190003,0.414550006,0.128979996
US-Cop,3,3.9,,1520,,,AMF_FLX,,,,,38.09,-109.39,GRA,,,,2001,2007,0.003651543,0.243699998,0.12624,0.112489998,0.377620012,0.117459998
US-CRT,2.5,4,,180,849,10.1,AMF_FLX,,,,,41.6285,-83.3471,CRO,Dfa,,,2011,2013,0.209243064,0.349649996,0.178310007,0.16437,0.457239985,0.171339989
US-CS1,2.5,4,,328,830,7,AMF_FLX,,,,,44.1031,-89.5379,CRO,Dfa,,,2018,2019,0.151179479,0.241549999,0.140589997,0.096978001,0.426679999,0.100960001
US-CS2,31,5.8,,328,830,7,AMF_FLX,,,,,44.1467,-89.5002,ENF,Dfa,,,2018,2022,10.9329663,0.195549995,0.11406,0.080195002,0.45006001,0.081489995
US-CS3,2.5,4,,328,830,7,AMF_FLX,,,,,44.1394,-89.5727,CRO,Dfa,,,2019,2020,1.105090205,0.206609994,0.119484,0.084463999,0.409099996,0.087125994
US-CS4,2.5,4,,328,830,7,AMF_FLX,,,,,44.1597,-89.5475,CRO,Dfa,,,2020,2021,0.673737209,0.223700002,0.127602994,0.093088001,0.424439996,0.096097007
US-DFC,30,4,,264.9,787,7.65,AMF_FLX,,,,,43.3448,-89.7117,CRO,Dfb,,,2018,2022,1.468095301,0.286529988,0.175720006,0.106040001,0.429030001,0.110809982
US-DS3,2.76,3.8,,-7,432,16,AMF_FLX,,,,,38.1235,-121.549,CRO,Csa,,,2021,2023,0,0.359270006,0.169279993,0.181920007,0.466479987,0.189990014
US-EDN,4.34,6.5,,,,,AMF_FLX,,,,,37.6156,-122.114,WET,Csa,,,2018,2019,0,0.402170002,0.205939993,0.185650006,0.530480027,0.196230009
US-EML,3.94,3.9,,662,378,-1,AMF_FLX,,,,,63.8784,-149.2536,OSH,ET,,,2008,2020,0.00202895,0.463070005,0.316009998,0.134230003,0.601090014,0.147060007
US-Fcr,2.3,3.9,,265,,-2.4,AMF_FLX,,,,,65.3968,-148.9348,OSH,Dwc,,,2011,2014,0.349790269,0.454950005,0.298029989,0.143610001,0.598990023,0.156920016
US-Fmf,23,2.6,,2160,546,9.5,AMF_FLX,,,,,35.1426,-111.7273,ENF,Csb,,,2005,2010,3.983746435,0.300359994,0.154699996,0.139850006,0.419239998,0.145659998
US-Fuf,23,2.6,,2180,562,8.7,AMF_FLX,,,,,35.089,-111.762,ENF,Csb,,,2005,2010,1.726152069,0.328350008,0.180299997,0.141849995,0.453170002,0.14805001
US-GLE,30.2,2.6,,3197,1200,0.8,AMF_FLX,,,,,41.3665,-106.2399,ENF,Dfc,,,2005,2020,3.361761233,0.339419991,0.214000002,0.118539996,0.503040016,0.125419989
US-Ha1,29,4.7,,340,1071,6.62,AMF_FLX,,,,,42.5378,-72.1715,DBF,Dfb,,,1991,2020,15.63643823,0.284610003,0.190457001,0.087798998,0.50049001,0.094153002
US-HB1,4.89,6.5,,0.1,1429,18.3,AMF_FLX,,,,,33.3455,-79.1957,WET,Cfa,,,2019,2022,3.479111432,0.327600002,0.182610005,0.138119996,0.485780001,0.144989997
US-HB2,32.92,5.8,,4.7,1429,18.3,AMF_FLX,,,,,33.3242,-79.244,ENF,Cfa,,,2019,2019,12.59348795,0.268139988,0.151480004,0.112000003,0.452780008,0.116659984
US-HB3,6.1,5.8,,7.3,1429,18.3,AMF_FLX,,,,,33.3482,-79.2322,ENF,Cfa,,,2019,2022,10.77592405,0.265610009,0.151800007,0.109310001,0.458739996,0.113810003
US-Hn2,3.25,3.3,,117.5,197,12.8,AMF_FLX,,,,,46.6889,-119.4641,GRA,Bsk,,,2015,2018,0.018630058,0.236000001,0.132190004,0.099156,0.37184,0.103809997
US-Hn3,3.25,3.9,,120.9,197,12.8,AMF_FLX,,,,,46.6878,-119.4614,OSH,Bsk,,,2017,2018,0.031233942,0.236000001,0.132190004,0.099156,0.37184,0.103809997
US-Ho2,28.3,5.8,,61,1064,5.13,AMF_FLX,,,,,45.2091,-68.747,ENF,Dfb,,,1999,2023,15.36240694,0.315270007,0.210950002,0.097632997,0.506510019,0.104320005
US-HWB,5,,,378,1006.35,10.1,AMF_FLX,,,,,40.8608,-77.8488,CVM,Dfb,,,2015,2018,4.261419278,0.353899986,0.214379996,0.133900002,0.46272999,0.139519989
US-ICh,3.8,3.9,,940,318,-7.4,AMF_FLX,,,,,68.6068,-149.2958,OSH,ET,,,2007,2023,0,0.49090001,0.293850005,0.173040003,0.651329994,0.197050005
US-ICs,2.56,6.5,,920,318,-7.4,AMF_FLX,,,,,68.6058,-149.311,WET,ET,,,2007,2023,0,0.51797998,0.301099986,0.185499996,0.678139985,0.216879994
US-ICt,3,3.9,,930,318,-7.4,AMF_FLX,,,,,68.6063,-149.3041,OSH,ET,,,2007,2023,0,0.512290001,0.300900012,0.18231,0.671350002,0.211389989
US-Jo1,10,3.9,,1188,245.1,14.7,AMF_FLX,,,,,32.582,-106.635,OSH,Bwk,,,2010,2022,0,0.216230005,0.107369997,0.104759999,0.366039991,0.108860008
US-Jo2,7.1,3.9,,1469,282.3,17.5,AMF_FLX,,,,,32.5849,-106.6032,OSH,Bwk,,,2010,2020,0,0.242259994,0.113679998,0.123779997,0.380279988,0.128579997
US-KFS,3,3.4,,310,1014,12,AMF_FLX,,,,,39.0561,-95.1907,GRA,Cfa,,,2007,2019,2.01616275,0.359189987,0.202940002,0.150110006,0.458099991,0.156249985
US-KLS,3,3.4,,373,812,12,AMF_FLX,,,,,38.7745,-97.5684,GRA,Cfa,,,2012,2019,0.892959205,0.310039997,0.166069999,0.138410002,0.418280005,0.143969998
US-Kon,3,3.4,,417,867,12.77,AMF_FLX,,,,,39.0824,-96.5603,GRA,Cfa,,,2004,2019,0.014222577,0.380910009,0.205160007,0.168430001,0.474720001,0.175750002
US-KS1,18,5.8,,1,1266,21.9,AMF_FLX,,,,,28.4583,-80.6709,ENF,Cwa,,,2002,2003,0.428794071,0.212850004,0.135847002,0.073887996,0.443289995,0.077003002
US-KS2,4.1,2.9,,3,1294,21.66,AMF_FLX,,,,,28.6086,-80.6715,CSH,Cwa,,,1999,2006,0.786016347,0.244939998,0.156740993,0.083938003,0.467159986,0.088199005
US-KS3,2.85,6.5,,0,1340,22.3,AMF_FLX,,,,,28.7084,-80.7427,WET,Cfa,,,2018,2018,0.01834503,0.373580009,0.233809993,0.129189998,0.555589974,0.139770016
US-Lin,9.18,3.8,,131,,,AMF_FLX,,,,,36.3566,-119.0922,CRO,,,,2009,2010,0.416059679,0.21627,0.120292,0.091848999,0.375279993,0.095977999
US-LS2,6.4,3.8,,1240,288,17,AMF_FLX,,,,,31.5659,-110.1344,SAV,Bwh,,,2002,2007,0.686951122,0.285259992,0.123190001,0.155919999,0.403030008,0.162069991
US-Me1,10,2.5,,896,704.61,7.88,AMF_FLX,,,,,44.5794,-121.5,ENF,Csb,,,2004,2005,0.054426874,0.277220011,0.165720001,0.106660001,0.42802,0.11150001
US-Me2,33,2.5,,1253,523,6.28,AMF_FLX,,,,,44.4526,-121.5589,ENF,Csb,,,2002,2022,9.578347902,0.310790002,0.200100005,0.10441,0.495400012,0.110689998
US-Me3,18,2.5,,1005,719,7.07,AMF_FLX,,,,,44.3154,-121.6078,ENF,Csb,,,2004,2009,4.525176068,0.246560007,0.149485007,0.093027003,0.447189987,0.097075
US-Me6,17.5,2.5,,998,494,7.59,AMF_FLX,,,,,44.3233,-121.6078,ENF,Csb,,,2010,2022,3.055894243,0.238169998,0.145364001,0.088996001,0.441060007,0.092805997
US-MMS,46,4.7,,275,1032,10.85,AMF_FLX,,,,,39.3232,-86.4131,DBF,Cfa,,,1999,2020,21.87627256,0.346439987,0.230110005,0.11163,0.459809989,0.116329983
US-Mo1,3.6,4,,260,981,12,AMF_FLX,,,,,39.2298,-92.1167,CRO,Cfa,,,2015,2023,0.181729797,0.352880001,0.197549999,0.149409994,0.439669997,0.155330002
US-Mo2,3.81,3.4,,275,981,12,AMF_FLX,,,,,38.9488,-91.9945,GRA,Cfa,,,2018,2023,0.291375176,0.364030004,0.21108,0.146970004,0.453610003,0.152950004
US-Mo3,3.5,4,,261,981,12,AMF_FLX,,,,,39.2322,-92.1493,CRO,Cfa,,,2016,2021,1.760974166,0.363169998,0.204830006,0.152109995,0.449129999,0.158339992
US-MOz,32,4.7,,219.4,986,12.11,AMF_FLX,,,,,38.7441,-92.2,DBF,Cfa,,,2004,2021,12.68915769,0.356579989,0.224859998,0.126409993,0.464639992,0.131719992
US-Mpj,8.2,3.7,,2196,385,10.5,AMF_FLX,,,,,34.4385,-106.2377,WSA,Bsk,,,2008,2020,1.02255272,0.268189996,0.132949993,0.129769996,0.391250014,0.135240003
US-Myb,5.7,6.5,,-4,338,15.9,AMF_FLX,,,,,38.0499,-121.765,WET,Csa,,,2010,2021,0.078152594,0.358289987,0.181759998,0.168760002,0.477809995,0.176529989
US-NC1,10.5,5.8,,5,1320,16.6,AMF_FLX,,,,,35.8118,-76.7119,ENF,Cfa,,,2005,2012,9.956519332,0.265549988,0.15535,0.105499998,0.438679993,0.110199988
US-NC3,11.35,5.8,,5,1320,16.6,AMF_FLX,,,,,35.799,-76.656,ENF,Cfa,,,2013,2021,7.255604371,0.273119986,0.159769997,0.108460002,0.439150006,0.113349989
US-NC4,35.15,6.5,,1,1311,16.6,AMF_FLX,,,,,35.7879,-75.9038,WET,Cfa,,,2009,2021,10.93899404,0.297049999,0.169369996,0.122060001,0.457010001,0.127680004
US-Ne1,6.2,4,,361,790.37,10.07,AMF_FLX,,,,,41.1651,-96.4766,CRO,Dfa,,,2001,2020,0.001074577,0.324499995,0.175779998,0.143220007,0.419649988,0.148719996
US-NGB,4.15,,,5.273,171,-11.27,AMF_FLX,,,,,71.28,-156.6092,SNO,ET,,,2012,2019,0,0.445160002,0.266779989,0.159569994,0.618369997,0.178380013
US-NGC,2.75,3.3,,35,,,AMF_FLX,,,,,64.8618,-163.7002,GRA,ET,,,2017,2023,0.923991014,0.490150005,0.32486999,0.146060005,0.637730002,0.165280014
US-NR1,25.5,2.6,,3050,800,1.5,AMF_FLX,,,,,40.0329,-105.5464,ENF,Dfc,,,1998,2016,5.681840494,0.292079985,0.18107,0.105619997,0.467790008,0.111009985
US-Oho,34,4.7,,230,849,10.1,AMF_FLX,,,,,41.5545,-83.8438,DBF,Dfa,,,2004,2013,18.43674646,0.254729986,0.145569995,0.105240002,0.458200008,0.109159991
US-ONA,2.8,4.2,,25,1268,22.3,AMF_FLX,,,,,27.3836,-81.9509,GRA,Cfa,,,2016,2022,0.763479549,0.080193996,0.018367,0.061826002,0.427819997,0.061826997
US-ORv,15,6.5,,221,1499.1,11.63,AMF_FLX,,,,,40.0201,-83.0183,WET,Cfa,,,2011,2016,3.574639364,0.308039993,0.170819998,0.131819993,0.422690004,0.137219995
US-OWC,5.77,6.5,,174,930,10.7,AMF_FLX,,,,,41.3795,-82.5125,WET,Dfb,,,2015,2016,5.329199137,0.312779993,0.181290001,0.125630006,0.459470004,0.131489992
US-Pnp,60,,,260,875,7.94,AMF_FLX,,,,,43.0896,-89.4158,WAT,Dfa,,,2016,2022,0.487441472,,,,,0
US-RGA,4.6,4,,61,1250,16.7,AMF_FLX,,,,,34.4159,-91.6733,CRO,Csa,,,2021,2023,0.042373136,0.318470001,0.197290003,0.116640002,0.422520012,0.121179998
US-RGB,2.4,3.8,,33,737,16,AMF_FLX,,,,,39.5782,-121.8579,CRO,Csa,,,2021,2023,0.040217155,0.351559997,0.157140002,0.186320007,0.455720007,0.194419995
US-RGo,2.9,3.8,,40,610,16,AMF_FLX,,,,,39.6805,-122.0026,CRO,Csa,,,2021,2023,0.679624018,0.289310008,0.148330003,0.135399997,0.402049989,0.140980005
US-Rls,3.05,2.9,,1608,333,8.4,AMF_FLX,,,,,43.1439,-116.7356,CSH,Bsh,,,2014,2023,0.004923463,0.305539995,0.171110004,0.128959998,0.430079997,0.134429991
US-Rms,3.05,2.9,,2111,800,5.4,AMF_FLX,,,,,43.0645,-116.7486,CSH,Bsh,,,2014,2023,0.286746788,0.303649992,0.19111,0.106899999,0.474339992,0.112539992
US-Ro1,3.7,4,,290,879,6.4,AMF_FLX,,,,,44.7143,-93.0898,CRO,Dfa,,,2004,2016,0.486678307,0.252209991,0.143690005,0.104139999,0.42554,0.108519986
US-Ro2,3.7,4,,292,879,6.4,AMF_FLX,,,,,44.7288,-93.0888,CRO,Dfa,,,2008,2016,0.857048364,0.272909999,0.155729994,0.112240002,0.433899999,0.117180005
US-Ro4,3.7,3.6,,274,879,6.4,AMF_FLX,,,,,44.6781,-93.0723,GRA,Dfa,,,2014,2023,1.016877337,0.273959994,0.160669997,0.108390003,0.43592,0.113289997
US-Ro5,4.5,4,,283,879,6.4,AMF_FLX,,,,,44.691,-93.0576,CRO,Dfa,,,2017,2023,2.467862124,0.26098001,0.152170002,0.104209997,0.429740012,0.108810008
US-Ro6,3.7,4,,282,879,6.4,AMF_FLX,,,,,44.6946,-93.0578,CRO,Dfa,,,2017,2023,1.015271957,0.26098001,0.152170002,0.104209997,0.429740012,0.108810008
US-Rpf,7.5,4.7,,497,450,-0.8,AMF_FLX,,,,,65.1198,-147.429,DBF,Dwc,,,2008,2023,0.32909966,0.418009996,0.297199994,0.112690002,0.554120004,0.120810002
US-Rwe,5.25,2.9,,2098,800,5.4,AMF_FLX,,,,,43.0653,-116.7591,CSH,Bsh,,,2003,2007,0.654538936,0.329659998,0.210460007,0.11338,0.479400009,0.119199991
US-Rwf,3.57,2.9,,1878,505,6.5,AMF_FLX,,,,,43.1207,-116.7231,CSH,Bsh,,,2014,2023,0.016954549,0.295109987,0.172549993,0.11744,0.428710014,0.122559994
US-Rws,3.05,3.9,,1425,290,8.9,AMF_FLX,,,,,43.1675,-116.7132,OSH,Bsk,,,2014,2023,0,0.28354001,0.159909993,0.118660003,0.403439999,0.123630017
US-Seg,3.4,3.9,,1596,273.304,13.667,AMF_FLX,,,,,34.3623,-106.702,GRA,Bsk,,,2007,2021,0,0.212860003,0.107940003,0.101530001,0.376399994,0.10492
US-Ses,3.2,3.9,,1604,275.082,13.722,AMF_FLX,,,,,34.3349,-106.7442,OSH,Bsk,,,2007,2021,0,0.206440002,0.106109999,0.097179003,0.374179989,0.100330003
US-Sne,5.43,3.3,,-5,311,16.09,AMF_FLX,,,,,38.0369,-121.7547,GRA,Csa,,,2016,2020,0.000913605,0.357010007,0.187089995,0.162479997,0.47744,0.169920012
US-Snf,3.49,3.3,,-4,,,AMF_FLX,,,,,38.0402,-121.7272,GRA,Csa,,,2018,2020,0.014509576,0.366340011,0.190119997,0.168579996,0.478989989,0.176220015
US-SRC,3.75,3.9,,950,330,22,FLUXNET2015,,,,,31.9083,-110.8395,OSH,Bwh,,,2008,2014,0,0.25711,0.108649999,0.142979994,0.378210008,0.148460001
US-SRG,3.5,3.7,,1291,420,17,AMF_FLX,,,,,31.7894,-110.8277,GRA,Bsk,,,2008,2023,0.213248843,0.280519992,0.124370001,0.15061,0.417400002,0.156149991
US-Srr,3.4,6.5,,8,326,15.1,AMF_FLX,,,,,38.2006,-122.0264,WET,Csa,,,2014,2017,0,0.308750004,0.151449993,0.151089996,0.421420008,0.15730001
US-SRS,7.1,3.7,,1169,388,19.4,AMF_FLX,,,,,31.8173,-110.8508,WSA,Bsk,,,2011,2018,0.265051568,0.276039988,0.121160001,0.149279997,0.406459987,0.154879987
US-StJ,3.6,6.5,,6.7,1121,13.5,AMF_FLX,,,,,39.0882,-75.4372,WET,Cfa,,,2015,2017,1.130401327,0.235080004,0.145934001,0.085197002,0.42050001,0.089146003
US-Syv,36,5.5,,540,826,3.81,AMF_FLX,,,,,46.242,-89.3477,MF,Dfb,,,2001,2023,16.06932319,0.313459992,0.215682,0.090597004,0.513700008,0.097777992
US-Ton,23.5,3.3,,177,559,15.8,AMF_FLX,,,,,38.4309,-120.966,WSA,Csa,,,2001,2023,3.255090588,0.260670006,0.139449999,0.116169997,0.389970005,0.121220008
US-Tw1,4.64,6.5,,-5,421,15.5,AMF_FLX,,,,,38.1074,-121.6469,WET,Csa,,,2011,2023,0.096397444,0.362410009,0.178029999,0.176420003,0.473650008,0.18438001
US-Tw2,5.2,3.8,,-5,421,15.5,AMF_FLX,,,,,38.0969,-121.6365,CRO,Csa,,,2012,2013,0.259602787,0.363020003,0.177760005,0.177289993,0.473150015,0.185259998
US-Tw3,2.8,3.8,,-4,421,15.6,AMF_FLX,,,,,38.1152,-121.6469,CRO,Csa,,,2013,2018,0.038327202,0.358009994,0.178059995,0.172150001,0.473740011,0.179949999
US-Tw4,5.36,6.5,,-5,421,15.6,AMF_FLX,,,,,38.1027,-121.6413,WET,Csa,,,2013,2023,0.055837527,0.357010007,0.171570003,0.177530006,0.467779994,0.185440004
US-Tw5,6.12,6.5,,-5,421,15.5,AMF_FLX,,,,,38.1072,-121.6426,WET,Csa,,,2018,2019,0.077702255,0.362410009,0.178029999,0.176420003,0.473650008,0.18438001
US-UM3,5.5,,,234,803,5.83,AMF_FLX,,,,,45.5686,-84.6707,WAT,Dfb,,,2013,2014,0.010551179,0.307520002,0.190129995,0.111139998,0.492240012,0.117390007
US-UMB,48,4.7,,234,803,5.83,AMF_FLX,,,,,45.5598,-84.7138,DBF,Dfb,,,2007,2021,18.46337586,0.235750005,0.148212001,0.083835997,0.467729986,0.087538004
US-UMd,32,4.7,,239,803,5.83,AMF_FLX,,,,,45.5625,-84.6975,DBF,Dfb,,,2007,2023,17.59061704,0.266550004,0.168899998,0.092808999,0.467400014,0.097650006
US-Var,2.5,3.3,,129,559,15.8,AMF_FLX,,,,,38.4133,-120.9508,GRA,Csa,,,2000,2021,0.810455117,0.26346001,0.142379999,0.116039999,0.392289996,0.121080011
US-Vcm,23.9,2.6,,3030,646,6.4,AMF_FLX,,,,,35.8884,-106.5321,ENF,Dfb,,,2007,2021,0.285089013,0.31558001,0.193570003,0.116209999,0.470589995,0.122010008
US-Vcp,28.2,2.6,,2500,550,9.8,AMF_FLX,,,,,35.8642,-106.5967,ENF,Dfb,,,2007,2023,4.839984949,0.291880012,0.172350004,0.114380002,0.436630011,0.119530007
US-Whs,6.5,3.9,,1370,320,17.6,AMF_FLX,,,,,31.7438,-110.0522,OSH,Bsk,,,2007,2020,0,0.227829993,0.108630002,0.115400001,0.380560011,0.119199991
US-Wi0,6,5.8,,349,,,AMF_FLX,,,,,46.6188,-91.0814,ENF,Dfb,,,2002,2002,10.94676313,0.351839989,0.215169996,0.128910005,0.515399992,0.136669993
US-Wi1,9,4.7,,352,,,AMF_FLX,,,,,46.7305,-91.2329,DBF,Dfb,,,2003,2003,10.04916599,0.336730003,0.201279998,0.128409997,0.498409986,0.135450006
US-Wi3,26,4.7,,411,,,AMF_FLX,,,,,46.6347,-91.0987,DBF,Dfb,,,2002,2004,15.86783612,0.339659989,0.204750001,0.128010005,0.495719999,0.134909987
US-Wi4,23,5.8,,352,,,AMF_FLX,,,,,46.7393,-91.1663,ENF,Dfb,,,2002,2005,15.93548477,0.354750007,0.213489994,0.132650003,0.528240025,0.141260013
US-Wi5,6,5.8,,353,,,AMF_FLX,,,,,46.6531,-91.0858,ENF,Dfb,,,2004,2004,10.83034062,0.319050014,0.194309995,0.11851,0.483260006,0.124740019
US-Wi6,3,3.9,,371,,,AMF_FLX,,,,,46.6249,-91.2982,OSH,Dfb,,,2002,2003,3.507053013,0.333799988,0.191339999,0.135409996,0.492819995,0.142459989
US-Wi7,6,3.9,,335,,,AMF_FLX,,,,,46.6491,-91.0693,OSH,Dfb,,,2005,2005,3.631643905,0.338730007,0.19641,0.135220006,0.494219989,0.142320007
US-Wi8,3,4.7,,348,,,AMF_FLX,,,,,46.7223,-91.2524,DBF,Dfb,,,2002,2002,11.20023779,0.320369989,0.196970001,0.116999999,0.489890009,0.123399988
US-Wi9,9,5.8,,350,,,AMF_FLX,,,,,46.7385,-91.0746,ENF,Dfb,,,2004,2005,8.643264519,0.347250015,0.209930003,0.128839999,0.527620018,0.137320012
US-Wjs,10.5,3.8,,1931,361,15.2,AMF_FLX,,,,,34.4255,-105.8615,SAV,Bsk,,,2007,2021,0.43373408,0.236680001,0.117899999,0.114229999,0.383439988,0.118780002
US-Wkg,6.4,3.9,,1531,407,15.64,AMF_FLX,,,,,31.7365,-109.9419,GRA,Bsk,,,,,0,0.240580007,0.111639999,0.124990001,0.392019987,0.128940009
US-WPT,3.2,6.5,,175,849,10.1,FLUXNET2015,,,,,41.4646,-82.9962,WET,Dfa,,,2011,2013,0.729831771,0.385360003,0.211309999,0.165419996,0.512690008,0.174050003
US-xAB,19.01,2.5,,363,2450.59,10,AMF_FLX,,,,,45.7624,-122.3303,ENF,Csb,,,2017,2023,9.346784847,0.350250006,0.223030001,0.119539998,0.519439995,0.127220005
US-xAE,8.63,3.4,,516,778.85,15.5,AMF_FLX,,,,,35.4106,-99.0588,GRA,Cfa,,,2017,2021,0.074704115,0.25455001,0.129800007,0.119439997,0.370169997,0.124750003
US-xBA,9.08,6.5,,6,110,-12,AMF_FLX,,,,,71.2824,-156.6194,WET,ET,,,2019,2021,0,0.445060015,0.264919996,0.161640003,0.616850019,0.180140018
US-xBL,8.71,4.7,,183,982.55,12.1,AMF_FLX,,,,,39.0603,-78.0716,DBF,Cfa,,,2019,2021,4.334337392,0.340990007,0.19901,0.136390001,0.44975999,0.141980007
US-xBN,19.87,2.5,,263,275,-2,AMF_FLX,,,,,65.154,-147.5026,ENF,Dwc,,,2019,2021,3.825506986,0.469289988,0.332349986,0.124569997,0.602079988,0.136940002
US-xBR,35.89,4.7,,232,1246,5.6,AMF_FLX,,,,,44.0639,-71.2873,DBF,Dfb,,,2017,2021,16.97003437,0.298460007,0.199883997,0.092436001,0.496179998,0.098576009
US-xCL,22.7,3.4,,259,925.61,17.5,AMF_FLX,,,,,33.4012,-97.57,GRA,Cfa,,,2017,2021,8.583293101,0.253690004,0.127800003,0.12071,0.384160012,0.125890002
US-xCP,8.41,3.9,,1654,320,8.6,AMF_FLX,,,,,40.8155,-104.7456,GRA,Bsk,,,2016,2021,0,0.274610013,0.12314,0.145999998,0.409040004,0.151470013
US-xDC,8.73,3.6,,559,489.74,4.9,AMF_FLX,,,,,47.1617,-99.1066,GRA,Dfb,,,2017,2021,0.001574317,0.357030004,0.185259998,0.163599998,0.494069993,0.171770006
US-xDJ,22.55,2.5,,529,300,-2,AMF_FLX,,,,,63.8811,-145.7514,ENF,Dfc,,,2017,2023,0.71020961,0.355280012,0.25266999,0.095946997,0.519810021,0.102610022
US-xDL,42.54,5.5,,22,1372,17.6,AMF_FLX,,,,,32.5417,-87.8039,MF,Cfa,,,2017,2021,14.06359766,0.351689994,0.174810007,0.169290006,0.468959987,0.176879987
US-xDS,8.72,,,15,1216.09,22.5,AMF_FLX,,,,,28.125,-81.4362,CVM,Cfa,,,2017,2021,0.581043001,0.165289998,0.096616998,0.06786,0.426059991,0.068673
US-xGR,45.99,4.7,,579,1375,13.1,AMF_FLX,,,,,35.689,-83.5019,DBF,Cfa,,,2017,2021,14.46775708,0.330440015,0.201580003,0.122979999,0.47044,0.128860012
US-xHA,39.28,4.7,,351,1071,6.62,AMF_FLX,,,,,42.5369,-72.1727,DBF,Dfb,,,2017,2021,15.18558503,0.284610003,0.190457001,0.087798998,0.50049001,0.094153002
US-xHE,9.28,3.9,,705,320,-4,AMF_FLX,,,,,63.8757,-149.2133,OSH,ET,,,2017,2021,0.000807682,0.463149995,0.318120003,0.13346,0.592599988,0.145029992
US-xJE,42.57,5.8,,44,1307.97,19.2,AMF_FLX,,,,,31.1948,-84.4686,ENF,Cfa,,,2017,2021,7.709449297,0.169170007,0.084156998,0.084799998,0.448949993,0.08501301
US-xJR,8.68,3.9,,1329,271.33,15.7,AMF_FLX,,,,,32.5907,-106.8425,OSH,Bsk,,,2017,2023,0,0.214269996,0.096050002,0.115670003,0.370539993,0.118219994
US-xKA,8.53,3.4,,1329,850.63,12.7,AMF_FLX,,,,,39.1104,-96.6129,GRA,Cfa,,,2017,2021,1.374129711,0.322809994,0.175260007,0.141939998,0.426059991,0.147549987
US-xKZ,8.5,3.4,,381,870.38,12.4,AMF_FLX,,,,,39.1008,-96.5631,GRA,Cfa,,,2017,2021,0.105210223,0.365310013,0.200890005,0.157849997,0.463200003,0.164420009
US-xMB,8.62,3.9,,1767,319.46,10.1,AMF_FLX,,,,,38.2483,-109.3883,OSH,Bsk,,,2017,2021,0.000307188,0.22394,0.11372,0.1061,0.377939999,0.11022
US-xML,29.21,4.7,,1126,1227.82,8.8,AMF_FLX,,,,,37.3783,-80.5248,DBF,Dfb,,,2017,2021,13.67824308,0.380620003,0.240710005,0.130779997,0.54203999,0.139909998
US-xNG,8.58,3.6,,578,456.51,5.9,AMF_FLX,,,,,46.7697,-100.9154,GRA,Dfb,,,2017,2021,0.001585969,0.275370002,0.144569993,0.125479996,0.406940013,0.130800009
US-xNQ,8.8,3.9,,1685,288.31,9,AMF_FLX,,,,,40.1776,-112.4524,OSH,Dfb,,,2017,2021,0,0.255360007,0.140090004,0.110370003,0.380100012,0.115270004
US-xRM,25.45,2.6,,2743,730.59,2.9,AMF_FLX,,,,,40.2759,-105.5459,ENF,Dfc,,,2017,2021,4.830193326,0.290010005,0.179580003,0.104599997,0.491439998,0.110430002
US-xSB,35.81,5.8,,45,1302.09,20.9,AMF_FLX,,,,,29.6893,-81.9934,ENF,Cfa,,,2017,2021,4.096438664,0.064179003,0.008115,0.056063998,0.425410002,0.056064003
US-xSC,51.89,4.7,,361,1125.5,11.6,AMF_FLX,,,,,38.8929,-78.1395,DBF,Cfa,,,2019,2021,17.41339606,0.338629991,0.212009996,0.120949998,0.470959991,0.126619995
US-xSE,62.04,4.7,,15,1074.65,13.6,AMF_FLX,,,,,38.8901,-76.56,DBF,Cfa,,,2017,2021,16.83250916,0.288159996,0.166529998,0.116379999,0.441419989,0.121629998
US-xSJ,39.44,3.8,,368,539.62,16.4,AMF_FLX,,,,,37.1088,-119.7323,SAV,Csa,,,2019,2021,1.618275902,0.208340004,0.111754999,0.093535997,0.386130005,0.096585006
US-xSL,8.42,4,,1364,432.67,9.7,AMF_FLX,,,,,40.4619,-103.0293,CRO,Bsk,,,2017,2023,0.01348369,0.277749985,0.139300004,0.132890001,0.39210999,0.138449982
US-xSR,8.41,3.9,,983,346,19.3,AMF_FLX,,,,,31.9107,-110.8355,OSH,Bsk,,,2017,2021,0,0.25711,0.108649999,0.142979994,0.378210008,0.148460001
US-xST,22.48,4.7,,481,797.56,4.8,AMF_FLX,,,,,45.5089,-89.5864,DBF,Dfb,,,2017,2021,6.496900517,0.2377,0.156101003,0.077596001,0.433149993,0.081598997
US-xTA,35.83,5.8,,135,1382.68,17.2,AMF_FLX,,,,,32.9505,-87.3933,ENF,Cfa,,,2017,2021,12.88612785,0.282489985,0.157590002,0.119659998,0.437400013,0.124899983
US-xTR,36.06,4.7,,472,797.56,4.8,AMF_FLX,,,,,45.4937,-89.5857,DBF,Dfb,,,2017,2021,6.004819108,0.232209995,0.154869005,0.073325999,0.440860003,0.07734099
US-xUK,35.86,4.7,,335,990.63,12.7,AMF_FLX,,,,,39.0404,-95.1921,DBF,Cfa,,,2017,2021,15.65352161,0.371910006,0.210840002,0.154369995,0.475749999,0.161070004
US-xUN,39.23,5.5,,518,802.3,4.3,AMF_FLX,,,,,46.2339,-89.5373,MF,Dfb,,,2017,2021,16.4827597,0.288020015,0.197347999,0.085376002,0.478309989,0.090672016
US-xWD,8.69,3.6,,579,493.76,4.9,AMF_FLX,,,,,47.1282,-99.2414,GRA,Dfb,,,2017,2023,0.090585026,0.356260002,0.183400005,0.164550006,0.49665001,0.172859997
US-xYE,18.52,2.6,,2116,493.44,3.4,AMF_FLX,,,,,44.9535,-110.5391,ENF,Dfc,,,2018,2021,2.425050939,0.334500015,0.200499997,0.127619997,0.481079996,0.134000018
